id,source,name,address,place_type,price_level,user_rating_google,user_rating_yelp,avg_user_rating,latitude,longitude,nearest_metro_station_name,nearest_metro_distance_meters,nearest_metro_route_codes,detail_url
ChIJRV6-TvWzwoARqRp8PEM3eGk,google,Bo Bridges Gallery,"1108 Manhattan Ave, Manhattan Beach, CA 90266, USA",art_gallery,,5,,5.0,33.8843904,-118.4103751,Sepulveda / 8th,1315.5,232,https://www.google.com/maps/place/?q=place_id:ChIJRV6-TvWzwoARqRp8PEM3eGk
ChIJn7HsQae8woARP07KjYkAhjc,google,FrameStore - Custom Framing Brentwood,"11684 San Vicente Blvd, Los Angeles, CA 90049, USA",art_gallery,,4.9,,4.9,34.0535746,-118.4647066,Wilshire / Barrington,562.9,720,https://www.google.com/maps/place/?q=place_id:ChIJn7HsQae8woARP07KjYkAhjc
ChIJ7cEs7nS7woARdHcVnqEIRvc,google,Giant Robot Store,"2015 Sawtelle Blvd, Los Angeles, CA 90025, USA",art_gallery,,4.6,,4.6,34.040408,-118.443431,Nebraska / Sepulveda,591.8,4,https://www.google.com/maps/place/?q=place_id:ChIJ7cEs7nS7woARdHcVnqEIRvc
ChIJFYDOd3HDwoAR_DhdrBevWzE,google,Gold Bug,"38 E Holly St, Pasadena, CA 91103, USA",art_gallery,,4.3,,4.3,34.1474013,-118.1496303,Main / Fremont,5781.7,78,https://www.google.com/maps/place/?q=place_id:ChIJFYDOd3HDwoAR_DhdrBevWzE
ChIJ3xJKipS6woARMoCU9T5f1NI,google,Beyond Baroque,"681 Venice Blvd., Venice, CA 90291, USA",attraction,,4.7,,4.7,33.9913623,-118.4588369,Venice / Shell,65.2,33,https://www.google.com/maps/place/?q=place_id:ChIJ3xJKipS6woARMoCU9T5f1NI
ChIJvXdlhBvHwoARfS5LNYPCnEQ,google,826LA & The Echo Park Time Travel Mart,"1714 Sunset Blvd, Los Angeles, CA 90026, USA",attraction,,4.6,,4.6,34.0773295,-118.2590327,Sunset / Echo Park,125.5,4,https://www.google.com/maps/place/?q=place_id:ChIJvXdlhBvHwoARfS5LNYPCnEQ
ChIJ9WZU-sy-woARnhyvpzXXP18,google,Melrose Trading Post,"7850 Melrose Ave, Los Angeles, CA 90046, USA",attraction,,4.4,,4.4,34.0833982,-118.3594799,Fairfax / Melrose,168.8,217,https://www.google.com/maps/place/?q=place_id:ChIJ9WZU-sy-woARnhyvpzXXP18
ChIJnUhfWoC5woARmFZ-DhZrwVI,google,B Sweet Catering,"3380 S Robertson Blvd, Los Angeles, CA 90034, USA",bakery,,5,,5.0,34.0291293,-118.3908174,Venice / Robertson,86.9,33,https://www.google.com/maps/place/?q=place_id:ChIJnUhfWoC5woARmFZ-DhZrwVI
ChIJB3Or0h3HwoARdrvpJZfBKFA,google,Kien Giang Bakery aka KG Bakery,"1471 Echo Park Ave, Los Angeles, CA 90026, USA",bakery,1,4.8,,4.8,34.0797858,-118.2558664,Sunset / Echo Park,346.7,4,https://www.google.com/maps/place/?q=place_id:ChIJB3Or0h3HwoARdrvpJZfBKFA
ChIJtQ6SEHHDwoARWidlvjtV9qw,google,The Dog Bakery - Fresh Baked Treats & Dog Birthday Cakes,"36 W Colorado Blvd, Pasadena, CA 91105, USA",bakery,,4.7,,4.7,34.1453825,-118.1512469,Main / Fremont,5552.7,78,https://www.google.com/maps/place/?q=place_id:ChIJtQ6SEHHDwoARWidlvjtV9qw
ChIJD28uC4S8woARUk1Z5qNqmjk,google,Diddy Riese,"926 Broxton Ave, Los Angeles, CA 90024, USA",bakery,1,4.6,,4.6,34.0630585,-118.446859,Le Conte / Broxton,60.7,2,https://www.google.com/maps/place/?q=place_id:ChIJD28uC4S8woARUk1Z5qNqmjk
ChIJyzpZ63-6woARxDqMPWJ0Pw0,google,Laura's Wholesome Junk Food,"578 Washington Blvd #46, Marina Del Rey, CA 90292, USA",bakery,,4.6,,4.6,33.9835658,-118.4588856,Venice / Abbot Kinney,663.0,33,https://www.google.com/maps/place/?q=place_id:ChIJyzpZ63-6woARxDqMPWJ0Pw0
ChIJb4cueJ64woAR7W1DzHLyo-U,google,Baskin-Robbins,"4048 W 3rd St, Los Angeles, CA 90020, USA",bakery,1,4.4,,4.4,34.0687506,-118.3017799,3rd / Kingsley,115.1,16,https://www.google.com/maps/place/?q=place_id:ChIJb4cueJ64woAR7W1DzHLyo-U
ChIJz3nnNoG8woARM2mO30LUT-Q,google,Ralphs Fresh Fare,"10861 Weyburn Ave, Los Angeles, CA 90024, USA",bakery,2,4.4,,4.4,34.0630182,-118.4444677,Le Conte / Westwood,83.5,2,https://www.google.com/maps/place/?q=place_id:ChIJz3nnNoG8woARM2mO30LUT-Q
ChIJy0s7IYuzwoARXdxQxQxAojk,google,Baskin-Robbins,"925 N Sepulveda Blvd, Manhattan Beach, CA 90266, USA",bakery,1,4.4,,4.4,33.88543,-118.3963817,Sepulveda / 8th,170.0,232,https://www.google.com/maps/place/?q=place_id:ChIJy0s7IYuzwoARXdxQxQxAojk
ChIJrXmBX-uzwoARH_RRztrL1Gc,google,Beckers Bakery,"1025 Manhattan Ave, Manhattan Beach, CA 90266, USA",bakery,2,4.4,,4.4,33.8839483,-118.4105027,Sepulveda / 8th,1326.2,232,https://www.google.com/maps/place/?q=place_id:ChIJrXmBX-uzwoARH_RRztrL1Gc
ChIJyy_0pjnGwoARUrtoUB06RL0,google,Beard Papa's - Little Tokyo,"333 Alameda St Ste 106, Los Angeles, CA 90013, USA",bakery,1,4.3,,4.3,34.0455505,-118.2386301,5th / Towne,402.5,16,https://www.google.com/maps/place/?q=place_id:ChIJyy_0pjnGwoARUrtoUB06RL0
ChIJR5RKjUfHwoARU1OW4pKvxqE,google,Baskin-Robbins,"3516 Sunset Blvd, Los Angeles, CA 90026, USA",bakery,1,4.3,,4.3,34.0890936,-118.2768141,Sunset / Maltman,63.0,2,https://www.google.com/maps/place/?q=place_id:ChIJR5RKjUfHwoARU1OW4pKvxqE
ChIJRYlAs7rAwoAReJZ3vhHAdTk,google,Albertsons,"2035 Hillhurst Ave, Los Angeles, CA 90027, USA",bakery,2,4.3,,4.3,34.1088116,-118.2879492,Hollywood / New Hampshire Layover,882.3,217,https://www.google.com/maps/place/?q=place_id:ChIJRYlAs7rAwoAReJZ3vhHAdTk
ChIJf5fVvoO8woARChfRh6MOi8o,google,Whole Foods Market,"1050 Gayley Ave, Los Angeles, CA 90024, USA",bakery,3,4.3,,4.3,34.0611873,-118.4469309,Westwood / Weyburn,213.9,2,https://www.google.com/maps/place/?q=place_id:ChIJf5fVvoO8woARChfRh6MOi8o
ChIJ7d9Zlcu4woAR0gYUAMiT3Cw,google,Pavilions,"727 Vine St, Los Angeles, CA 90038, USA",bakery,,4.3,,4.3,34.084534,-118.3271536,Rossmore / Melrose,146.3,210,https://www.google.com/maps/place/?q=place_id:ChIJ7d9Zlcu4woAR0gYUAMiT3Cw
ChIJz_K9rHzDwoARA-LuARfmYqY,google,Whole Foods Market,"465 S Arroyo Pkwy, Pasadena, CA 91105, USA",bakery,3,4.3,,4.3,34.13782339999999,-118.1478342,Main / Fremont,4729.7,78,https://www.google.com/maps/place/?q=place_id:ChIJz_K9rHzDwoARA-LuARfmYqY
ChIJbalu4-yzwoARcSWJeSPTzT0,google,Vons,"410 Manhattan Beach Blvd, Manhattan Beach, CA 90266, USA",bakery,,4.3,,4.3,33.8850913,-118.4078617,Sepulveda / 8th,1090.3,232,https://www.google.com/maps/place/?q=place_id:ChIJbalu4-yzwoARcSWJeSPTzT0
ChIJnRVpnsW-woARBd7NUNgKIMU,google,Whole Foods Market,"7871 Santa Monica Blvd, West Hollywood, CA 90046, USA",bakery,3,4.2,,4.2,34.0915208,-118.3607656,Fairfax / Santa Monica,68.4,217,https://www.google.com/maps/place/?q=place_id:ChIJnRVpnsW-woARBd7NUNgKIMU
ChIJ1zUA9k6_woARn56C3cZ-Yps,google,Vons,"4520 Sunset Blvd, Los Angeles, CA 90027, USA",bakery,,4.2,,4.2,34.0970657,-118.287983,Sunset / Virgil,115.0,2,https://www.google.com/maps/place/?q=place_id:ChIJ1zUA9k6_woARn56C3cZ-Yps
ChIJSYmsUwy7woARwW01p9zUXHY,google,Ralphs Fresh Fare,"11727 W Olympic Blvd, Los Angeles, CA 90064, USA",bakery,2,4.2,,4.2,34.0349195,-118.4490712,Santa Monica / Barrington,1194.8,4,https://www.google.com/maps/place/?q=place_id:ChIJSYmsUwy7woARwW01p9zUXHY
ChIJDQE3A6y7woAR4hKGnZTA8yM,google,Ralphs,"11361 National Blvd, Los Angeles, CA 90064, USA",bakery,2,4.2,,4.2,34.0260615,-118.4333132,Venice / Sawtelle,2026.7,33,https://www.google.com/maps/place/?q=place_id:ChIJDQE3A6y7woAR4hKGnZTA8yM
ChIJnZ7NM3W7woARbdWgirvKqWs,google,Beard Papa's - Sawtelle,"2130 Sawtelle Blvd #110, Los Angeles, CA 90025, USA",bakery,1,4.2,,4.2,34.0392467,-118.4416478,Nebraska / Sepulveda,737.1,4,https://www.google.com/maps/place/?q=place_id:ChIJnZ7NM3W7woARbdWgirvKqWs
ChIJYdVR8Vy7woARyzEd5kOumHw,google,Ralphs Fresh Fare,"12057 Wilshire Blvd, Los Angeles, CA 90025, USA",bakery,2,4.2,,4.2,34.04497,-118.4670728,Wilshire / Bundy,115.5,720,https://www.google.com/maps/place/?q=place_id:ChIJYdVR8Vy7woARyzEd5kOumHw
ChIJ1S9RcHbDwoART2nGFcV37tU,google,Ralphs Fresh Fare,"320 W Colorado Blvd, Pasadena, CA 91105, USA",bakery,2,4.2,,4.2,34.14522000000001,-118.1569545,Main / Hampden Terrace,5533.1,78,https://www.google.com/maps/place/?q=place_id:ChIJ1S9RcHbDwoART2nGFcV37tU
ChIJ-U_qDUPDwoAR7KxUK_89KBY,google,Ralphs,"160 N Lake Ave, Pasadena, CA 91101, USA",bakery,2,4.2,,4.2,34.1489613,-118.1312764,Woodward / Garfield,5709.9,78,https://www.google.com/maps/place/?q=place_id:ChIJ-U_qDUPDwoAR7KxUK_89KBY
ChIJFdArV7bHwoARwq5whSpuG0Q,google,Ralphs Fresh Fare,"645 W 9th St, Los Angeles, CA 90015, USA",bakery,2,4.1,,4.1,34.045818,-118.260585,9th / Hope,76.0,66,https://www.google.com/maps/place/?q=place_id:ChIJFdArV7bHwoARwq5whSpuG0Q
ChIJOdM_dhnHwoARVjCcEiZuLYg,google,Vons,"1342 N Alvarado St, Los Angeles, CA 90026, USA",bakery,,4.1,,4.1,34.0795176,-118.2612607,Sunset / Park,162.3,4,https://www.google.com/maps/place/?q=place_id:ChIJOdM_dhnHwoARVjCcEiZuLYg
ChIJA66rhDjHwoARCUiF5f-Z4yA,google,Lark Cake Shop,"3337 Sunset Blvd, Los Angeles, CA 90026, USA",bakery,2,4.1,,4.1,34.0875294,-118.2755347,Sunset / Micheltorena,39.1,2,https://www.google.com/maps/place/?q=place_id:ChIJA66rhDjHwoARCUiF5f-Z4yA
ChIJaz46A4W4woARM1iwC0URPD0,google,Ralphs,"670 S Western Ave, Los Angeles, CA 90005, USA",bakery,2,4.1,,4.1,34.0600458,-118.3085512,Western / Wilshire,142.9,66,https://www.google.com/maps/place/?q=place_id:ChIJaz46A4W4woARM1iwC0URPD0
ChIJtYVe7ri-woARshBpQ9HaY-U,google,Mamolo's Fine Pastries,"8330 Santa Monica Blvd, West Hollywood, CA 90069, USA",bakery,,4.1,,4.1,34.0903047,-118.37116,Santa Monica / Sweetzer,73.2,4,https://www.google.com/maps/place/?q=place_id:ChIJtYVe7ri-woARshBpQ9HaY-U
ChIJSeu0UMK-woARmiGI_E7pDA0,google,Bristol Farms,"7880 Sunset Blvd, Los Angeles, CA 90046, USA",bakery,,4.1,,4.1,34.0976599,-118.3612886,Fairfax / Sunset,30.0,217,https://www.google.com/maps/place/?q=place_id:ChIJSeu0UMK-woARmiGI_E7pDA0
ChIJ-eNZfMqkwoARjfzHjQ9ofjM,google,Vons,"1311 Wilshire Blvd, Santa Monica, CA 90403, USA",bakery,,4.1,,4.1,34.0265061,-118.4899059,Wilshire / 14th,109.2,720,https://www.google.com/maps/place/?q=place_id:ChIJ-eNZfMqkwoARjfzHjQ9ofjM
ChIJ0_drls2kwoARDiN_0cz4cnw,google,Vons,"710 Broadway, Santa Monica, CA 90401, USA",bakery,,4.1,,4.1,34.0173423,-118.4901344,Santa Monica / Lincoln,286.3,4,https://www.google.com/maps/place/?q=place_id:ChIJ0_drls2kwoARDiN_0cz4cnw
ChIJlVm-hzC6woARhvUogUS2tro,google,Ralphs,"3827 Culver Center, Culver City, CA 90232, USA",bakery,2,4.1,,4.1,34.017309,-118.4077102,Venice / Overland,173.7,33,https://www.google.com/maps/place/?q=place_id:ChIJlVm-hzC6woARhvUogUS2tro
ChIJob8Q_NK7woARWjmm9WZBRvQ,google,Vons,"9860 National Blvd, Cheviot Hills, CA 90034, USA",bakery,,4.1,,4.1,34.0302194,-118.4014345,Venice / Bagley,770.5,33,https://www.google.com/maps/place/?q=place_id:ChIJob8Q_NK7woARWjmm9WZBRvQ
ChIJnc7dGpO7woAR5rLm00gI4Dw,google,Ralphs Fresh Fare,"10309 W Olympic Blvd, Los Angeles, CA 90064, USA",bakery,2,4.1,,4.1,34.0524416,-118.4177738,Century Park West / Solar,346.0,28,https://www.google.com/maps/place/?q=place_id:ChIJnc7dGpO7woAR5rLm00gI4Dw
ChIJU0frxau-woAR5USsDfCdmDw,google,Ralphs Fresh Fare,"9040 Beverly Blvd, West Hollywood, CA 90048, USA",bakery,2,4.1,,4.1,34.0766526,-118.3890975,Santa Monica / Doheny,479.3,4,https://www.google.com/maps/place/?q=place_id:ChIJU0frxau-woAR5USsDfCdmDw
ChIJG09LcCi_woARoaEpRpt5JsY,google,Ralphs,"1233 N La Brea Ave, West Hollywood, CA 90038, USA",bakery,2,4,,4.0,34.0934927,-118.3446193,La Brea / Fountain,96.7,212,https://www.google.com/maps/place/?q=place_id:ChIJG09LcCi_woARoaEpRpt5JsY
ChIJKRRLeoe4woARKx4gzeHMFiI,google,Cake House,"3250 W Olympic Blvd #103, Los Angeles, CA 90006, USA",bakery,,3.6,,3.6,34.0523612,-118.3088845,Olympic / Western,19.0,28,https://www.google.com/maps/place/?q=place_id:ChIJKRRLeoe4woARKx4gzeHMFiI
ChIJu7W-arG-woAREpJv7jw3-n4,google,Yeastie Boys Bagels,"3900 Sunset Blvd, Los Angeles, CA 90029, USA",bakery,,3.4,,3.4,34.0915701,-118.2798641,Sunset / Hyperion,59.3,2,https://www.google.com/maps/place/?q=place_id:ChIJu7W-arG-woAREpJv7jw3-n4
ChIJTaXRRoDHwoARd340HvRZysg,google,Seoul Bakery,"2897 W Olympic Blvd # 104, Los Angeles, CA 90006, USA",bakery,,2.1,,2.1,34.0529601,-118.297503,Olympic / Normandie,212.3,28,https://www.google.com/maps/place/?q=place_id:ChIJTaXRRoDHwoARd340HvRZysg
ChIJIdbPHcPHwoAR3FlREKMpyFw,google,Santa’s Grotto,"1801 Sunset Blvd, Los Angeles, CA 90026, USA",bar,,5,,5.0,34.0779064,-118.2594152,Sunset / Echo Park,182.9,4,https://www.google.com/maps/place/?q=place_id:ChIJIdbPHcPHwoAR3FlREKMpyFw
ChIJdVPAOX3HwoARcay4405ZAfM,google,Chapman Karaoke,"3465 W 6th St Ste 160 #83, Los Angeles, CA 90020, USA",bar,,5,,5.0,34.0637327,-118.2972824,Wilshire / Alexandria,208.3,20,https://www.google.com/maps/place/?q=place_id:ChIJdVPAOX3HwoARcay4405ZAfM
ChIJNb-2EFC5woARaz1SAlHKFdY,google,Punks Karaoke,"3421 W 8th St 2nd floor, Los Angeles, CA 90005, USA",bar,,5,,5.0,34.0578165,-118.303816,8th / Harvard,15.8,66,https://www.google.com/maps/place/?q=place_id:ChIJNb-2EFC5woARaz1SAlHKFdY
ChIJAQDQlH-4woARtdyLO1r4Q-s,google,I Love Micheladas,"3014 W Olympic Blvd, Los Angeles, CA 90006, USA",bar,,5,,5.0,34.0524074,-118.3006681,Normandie / Olympic,52.7,206,https://www.google.com/maps/place/?q=place_id:ChIJAQDQlH-4woARtdyLO1r4Q-s
ChIJ6UFndXzHwoARFCV7FBySTJY,google,뒷골목 노래방,"3275 Wilshire Blvd, Los Angeles, CA 90010, USA",bar,,5,,5.0,34.0619748,-118.2936174,Wilshire / Catalina,149.1,20,https://www.google.com/maps/place/?q=place_id:ChIJ6UFndXzHwoARFCV7FBySTJY
ChIJL8Qgvr--woARjt5pbJ7o2-U,google,mmhmmm,"8300 Sunset Blvd, West Hollywood, CA 90069, USA",bar,,5,,5.0,34.0959455,-118.3708938,Sunset / Sweetzer,59.4,2,https://www.google.com/maps/place/?q=place_id:ChIJL8Qgvr--woARjt5pbJ7o2-U
ChIJgyYHZtK-woARpFyvDTdcbR0,google,Happy Hour,"7663 Melrose Ave, Los Angeles, CA 90046, USA",bar,,5,,5.0,34.0838923,-118.3568032,Fairfax / Melrose,414.1,217,https://www.google.com/maps/place/?q=place_id:ChIJgyYHZtK-woARpFyvDTdcbR0
ChIJDSqV467AwoARwwGe00ZeqJY,google,Tu Madri,"Los Angeles, CA 90027, USA",bar,,5,,5.0,34.1043693,-118.2916698,Hollywood / New Hampshire Layover,290.6,217,https://www.google.com/maps/place/?q=place_id:ChIJDSqV467AwoARwwGe00ZeqJY
ChIJmf8gQwDHwoARWLvlDowImco,google,Bar Stumu,"4367 Sunset Dr, Los Angeles, CA 90027, USA",bar,,5,,5.0,34.09832290000001,-118.2848949,Sunset / Virgil,248.3,2,https://www.google.com/maps/place/?q=place_id:ChIJmf8gQwDHwoARWLvlDowImco
ChIJJ1ynKPvBwoARMXbV27YXKfM,google,Hyperion Social,"2611 Hyperion Ave, Los Angeles, CA 90027, USA",bar,,5,,5.0,34.1060161,-118.2728363,Sunset / Fountain,1520.0,2,https://www.google.com/maps/place/?q=place_id:ChIJJ1ynKPvBwoARMXbV27YXKfM
ChIJdw7wjubHwoARWS2Yc1keN8A,google,JŌDO SAKÉ BAR,"2126 W Temple St, Los Angeles, CA 90026, USA",bar,,5,,5.0,34.0703963,-118.2690844,Alvarado / Temple,94.0,2,https://www.google.com/maps/place/?q=place_id:ChIJdw7wjubHwoARWS2Yc1keN8A
ChIJASj1DwC7woARoTrt4wD6IvI,google,Rhythm & Bleu (Formerly Karaoke Bleu),"2064 Sawtelle Blvd, Los Angeles, CA 90025, USA",bar,,5,,5.0,34.0398047,-118.4425047,Nebraska / Sepulveda,663.0,4,https://www.google.com/maps/place/?q=place_id:ChIJASj1DwC7woARoTrt4wD6IvI
ChIJuStkF7q7woARgB4llM5z5_4,google,Sawtelle Sake,"1836 Sawtelle Blvd, Los Angeles, CA 90025, USA",bar,,5,,5.0,34.0431743,-118.4453174,Nebraska / Sepulveda,338.5,4,https://www.google.com/maps/place/?q=place_id:ChIJuStkF7q7woARgB4llM5z5_4
ChIJCaqZROi7woARpXem-SWO-2c,google,Brentwood Fine Wines,"11740 San Vicente Blvd Suite 114+115, Los Angeles, CA 90049, USA",bar,,5,,5.0,34.0527578,-118.4672941,Wilshire / Barrington,674.2,720,https://www.google.com/maps/place/?q=place_id:ChIJCaqZROi7woARpXem-SWO-2c
ChIJY8rni6q7woARzhQ73YxDQrQ,google,Offshore Lounge,"12311 Santa Monica Blvd, Los Angeles, CA 90025, USA",bar,,5,,5.0,34.0395164,-118.4660995,Santa Monica / Bundy,314.2,4,https://www.google.com/maps/place/?q=place_id:ChIJY8rni6q7woARzhQ73YxDQrQ
ChIJ23tp93m5woARKPZbMQ2kQMA,google,Flair Project | Cocktail Catering & Bartending,"151 N Almont Dr Suite 203, Beverly Hills, CA 90211, USA",bar,,5,,5.0,34.0686139,-118.3880097,Wilshire / La Peer,192.6,20,https://www.google.com/maps/place/?q=place_id:ChIJ23tp93m5woARKPZbMQ2kQMA
ChIJveii5cq4woARwaCqlNuQVtc,google,Showmance,"5916 1/2 Willoughby Ave, Los Angeles, CA 90038, USA",bar,,5,,5.0,34.0868146,-118.3251119,Vine / Willoughby,126.2,210,https://www.google.com/maps/place/?q=place_id:ChIJveii5cq4woARwaCqlNuQVtc
ChIJ81gLEgC_woARm03L5v0_wAc,google,F&Bar,"1229 Vine St, Los Angeles, CA 90038, USA",bar,,5,,5.0,34.0934809,-118.3269601,Vine / Lexington,84.0,210,https://www.google.com/maps/place/?q=place_id:ChIJ81gLEgC_woARm03L5v0_wAc
ChIJcxvE3SPDwoARDUhTHMpznWI,google,Glambrows by Cin,"300 E Colorado Blvd, Pasadena, CA 91129, USA",bar,,5,,5.0,34.1452656,-118.1447669,Woodward / Garfield,5505.4,78,https://www.google.com/maps/place/?q=place_id:ChIJcxvE3SPDwoARDUhTHMpznWI
ChIJobrBbQDDwoARIb6ZwXPWlow,google,AC Lounge,"19 S Madison Ave, Pasadena, CA 91101, USA",bar,,5,,5.0,34.14573920000001,-118.1385706,Woodward / Garfield,5428.2,78,https://www.google.com/maps/place/?q=place_id:ChIJobrBbQDDwoARIb6ZwXPWlow
ChIJF4v-NGbHwoARBb9HWQn4JnY,google,Spirit House Echo Park,"1801 Sunset Blvd, Los Angeles, CA 90026, USA",bar,,4.9,,4.9,34.0779234,-118.2594468,Sunset / Echo Park,186.4,4,https://www.google.com/maps/place/?q=place_id:ChIJF4v-NGbHwoARBb9HWQn4JnY
ChIJT7wQva7AwoARc35hM9KN9nk,google,V FOR VAPE + NANO CBD,"1727 N Vermont Ave #210, Los Angeles, CA 90027, USA",bar,,4.9,,4.9,34.102656,-118.2922608,Hollywood / New Hampshire Layover,92.6,217,https://www.google.com/maps/place/?q=place_id:ChIJT7wQva7AwoARc35hM9KN9nk
ChIJ7xWQIp7BwoARBDt4kCbdVI0,google,LA Hookah Lounge,"1551 N Vermont Ave, Los Angeles, CA 90027, USA",bar,,4.9,,4.9,34.0998964,-118.2926346,Vermont / Hollywood - South,94.3,204,https://www.google.com/maps/place/?q=place_id:ChIJ7xWQIp7BwoARBDt4kCbdVI0
ChIJg3-DdZzBwoARdL0waGk7N-I,google,Untamed Spirits,"3715 Evans St W, Los Angeles, CA 90027, USA",bar,,4.9,,4.9,34.1059714,-118.2730179,Sunset / Fountain,1504.9,2,https://www.google.com/maps/place/?q=place_id:ChIJg3-DdZzBwoARdL0waGk7N-I
ChIJ_1wJ50q_woARh4Fs73a3uFw,google,Hollywood Distillery Inc.,"5975 Santa Monica Blvd, West Hollywood, CA 90038, USA",bar,,4.9,,4.9,34.0909411,-118.3198091,Santa Monica / Bronson,188.8,4,https://www.google.com/maps/place/?q=place_id:ChIJ_1wJ50q_woARh4Fs73a3uFw
ChIJvbFyxKTHwoARGdVYTYdYHKA,google,Wine Stop SVLK | Wine Shop & Tasting Bar,"2856 Sunset Blvd, Los Angeles, CA 90026, USA",bar,,4.8,,4.8,34.0827031,-118.2733146,Sunset / Parkman,34.7,2,https://www.google.com/maps/place/?q=place_id:ChIJvbFyxKTHwoARGdVYTYdYHKA
ChIJ6Y_omxa7woARn53iy4K5W6k,google,The Rosegold Saloon,"11501 W Pico Blvd, Los Angeles, CA 90064, USA",bar,,4.8,,4.8,34.0334121,-118.4426905,Nebraska / Sepulveda,1370.8,4,https://www.google.com/maps/place/?q=place_id:ChIJ6Y_omxa7woARn53iy4K5W6k
ChIJ7SyEcGG7woARZkiDRbM49mE,google,Banter Bar,"2965 S Sepulveda Blvd, Los Angeles, CA 90064, USA",bar,,4.8,,4.8,34.0277463,-118.4292483,Venice / Sepulveda,1966.0,33,https://www.google.com/maps/place/?q=place_id:ChIJ7SyEcGG7woARZkiDRbM49mE
ChIJB-ilQge8woARqvOZ93RCwZ0,google,Nazareth's Fine Cigars,"350 N Canon Dr #22, Beverly Hills, CA 90210, USA",bar,,4.8,,4.8,34.0701645,-118.4002235,Santa Monica / Canon,345.7,4,https://www.google.com/maps/place/?q=place_id:ChIJB-ilQge8woARqvOZ93RCwZ0
ChIJ78EgR3e9woARkRmdvIBG5iY,google,Beverly Bar - Beverly Hills Restaurant,"434 N Camden Dr, Beverly Hills, CA 90210, USA",bar,3,4.8,,4.8,34.0693816,-118.4046526,Santa Monica / Camden,128.1,4,https://www.google.com/maps/place/?q=place_id:ChIJ78EgR3e9woARkRmdvIBG5iY
ChIJT64_9Xm_woARXwj2rWRd6JM,google,The Broadwater Plunge,"6324 Santa Monica Blvd, Los Angeles, CA 90038, USA",bar,,4.8,,4.8,34.0906252,-118.3276413,Santa Monica / Vine,68.9,4,https://www.google.com/maps/place/?q=place_id:ChIJT64_9Xm_woARXwj2rWRd6JM
ChIJ22DWDUK_woARzTqXEfoP_iw,google,Paris at Night,"6510 Santa Monica Blvd, Los Angeles, CA 90038, USA",bar,,4.8,,4.8,34.0906132,-118.3314514,Santa Monica / Wilcox,28.2,4,https://www.google.com/maps/place/?q=place_id:ChIJ22DWDUK_woARzTqXEfoP_iw
ChIJbbiPlTzDwoAR1xLrpSkypPk,google,La Cave,"163 W Green St, Pasadena, CA 91105, USA",bar,,4.8,,4.8,34.144727,-118.1539927,Main / Meridian,5476.4,78,https://www.google.com/maps/place/?q=place_id:ChIJbbiPlTzDwoAR1xLrpSkypPk
ChIJe8tyojXGwoARi1awtzaWShc,google,Mignon,"128 E 6th St, Los Angeles, CA 90014, USA",bar,2,4.7,,4.7,34.0446248,-118.2493266,6th / Los Angeles,58.7,16,https://www.google.com/maps/place/?q=place_id:ChIJe8tyojXGwoARi1awtzaWShc
ChIJI9WjVLTHwoAR1jD5leBjYPw,google,Bar Jackalope,"515 W 7th St #200, Los Angeles, CA 90014, USA",bar,2,4.7,,4.7,34.0470535,-118.255909,7th / Olive,27.9,51,https://www.google.com/maps/place/?q=place_id:ChIJI9WjVLTHwoAR1jD5leBjYPw
ChIJEy4mphDHwoARejZ9zUN_d4U,google,Ramona Room,"2135 Sunset Blvd, Los Angeles, CA 90026, USA",bar,2,4.7,,4.7,34.0776068,-118.2646526,Sunset / Alvarado,61.4,2,https://www.google.com/maps/place/?q=place_id:ChIJEy4mphDHwoARejZ9zUN_d4U
ChIJ66EEnTXHwoARsKjbltveb8U,google,Hyperion Avenue Tavern,"1941 Hyperion Ave, Los Angeles, CA 90027, USA",bar,1,4.7,,4.7,34.0981296,-118.2749394,Sunset / Bates,803.5,2,https://www.google.com/maps/place/?q=place_id:ChIJ66EEnTXHwoARsKjbltveb8U
ChIJz2lmOBXHwoARxkOMlpU4fUc,google,K-POP karaoke,"3309 W 6th St, Los Angeles, CA 90020, USA",bar,,4.7,,4.7,34.0640355,-118.2945964,Wilshire / Catalina,243.7,20,https://www.google.com/maps/place/?q=place_id:ChIJz2lmOBXHwoARxkOMlpU4fUc
ChIJOw7tO03HwoARpYVvqyQzimI,google,Tiki-Ti,"4427 Sunset Blvd, Los Angeles, CA 90027, USA",bar,2,4.7,,4.7,34.0974753,-118.2857823,Sunset / Virgil,176.3,2,https://www.google.com/maps/place/?q=place_id:ChIJOw7tO03HwoARpYVvqyQzimI
ChIJ_QVqEADBwoARHSsvs361Z3c,google,Bar One,"N Vermont Ave, Los Angeles, CA 90027, USA",bar,,4.7,,4.7,34.1042301,-118.2914349,Hollywood / New Hampshire Layover,283.3,217,https://www.google.com/maps/place/?q=place_id:ChIJ_QVqEADBwoARHSsvs361Z3c
ChIJo4XM5_W7woARHJeHgNWw_Fg,google,The Club Bar,"9882 S Santa Monica Blvd, Beverly Hills, CA 90212, USA",bar,2,4.7,,4.7,34.0657248,-118.4106882,Santa Monica / Wilshire,121.9,4,https://www.google.com/maps/place/?q=place_id:ChIJo4XM5_W7woARHJeHgNWw_Fg
ChIJz2kb0O27woARJSWI-TBAIW8,google,Force of Nature,"1031 Abbot Kinney Blvd, Venice, CA 90291, USA",bar,,4.7,,4.7,33.9921885,-118.4715287,Main / Brooks,221.6,33,https://www.google.com/maps/place/?q=place_id:ChIJz2kb0O27woARJSWI-TBAIW8
ChIJK74s4Qm8woARj0AKXMUjnwo,google,Buena Vista Cigar Club - Beverly Hills,"9715 S Santa Monica Blvd, Beverly Hills, CA 90210, USA",bar,,4.7,,4.7,34.0683872,-118.4078443,Wilshire / Linden,131.2,20,https://www.google.com/maps/place/?q=place_id:ChIJK74s4Qm8woARj0AKXMUjnwo
ChIJBQm0mPi7woARfl8oXZokl7Q,google,Grand Havana Room,"301 N Canon Dr, Beverly Hills, CA 90210, USA",bar,,4.7,,4.7,34.0693071,-118.3998587,Wilshire / Rodeo,294.4,20,https://www.google.com/maps/place/?q=place_id:ChIJBQm0mPi7woARfl8oXZokl7Q
ChIJMY8Rw3rDwoAR44W79x2hZkQ,google,Stone Brewing Tap Room - Pasadena,"220 S Raymond Ave, Pasadena, CA 91105, USA",bar,,4.7,,4.7,34.1417428,-118.1484056,Main / Fremont,5160.0,78,https://www.google.com/maps/place/?q=place_id:ChIJMY8Rw3rDwoAR44W79x2hZkQ
ChIJQw2teXHDwoAR7zp6tIzoGy4,google,Old Towne Pub,"66 N Fair Oaks Ave, Pasadena, CA 91103, USA",bar,1,4.7,,4.7,34.1472403,-118.1497532,Main / Fremont,5763.4,78,https://www.google.com/maps/place/?q=place_id:ChIJQw2teXHDwoAR7zp6tIzoGy4
ChIJ1f4mIouzwoARzzdVz1OKq2g,google,Barsha Wines & Spirits,"917 N Sepulveda Blvd, Manhattan Beach, CA 90266, USA",bar,2,4.7,,4.7,33.8852493,-118.3963317,Sepulveda / 8th,149.5,232,https://www.google.com/maps/place/?q=place_id:ChIJ1f4mIouzwoARzzdVz1OKq2g
ChIJd-OpVLTHwoARJ3fFiZG_xD4,google,Seven Grand,"515 W 7th St 2nd floor, Los Angeles, CA 90014, USA",bar,2,4.6,,4.6,34.04702750000001,-118.2559336,7th / Olive,27.7,51,https://www.google.com/maps/place/?q=place_id:ChIJd-OpVLTHwoARJ3fFiZG_xD4
ChIJ9YuGXjXGwoARAzK_DHu89WM,google,Spring St Bar,"626 S Spring St B, Los Angeles, CA 90014, USA",bar,2,4.6,,4.6,34.04509780000001,-118.2513307,6th / Spring,86.7,16,https://www.google.com/maps/place/?q=place_id:ChIJ9YuGXjXGwoARAzK_DHu89WM
ChIJWaxK3UfGwoARNwa93HlTgww,google,Lounge Ohjah,"328 1st St Second Floor, Los Angeles, CA 90012, USA",bar,,4.6,,4.6,34.0496734,-118.2402369,Spring / 1st,538.1,28,https://www.google.com/maps/place/?q=place_id:ChIJWaxK3UfGwoARNwa93HlTgww
ChIJCUNzt4K4woAR-z4MIi0ONo4,google,The Normandie Club,"3612 W 6th St, Los Angeles, CA 90020, USA",bar,2,4.6,,4.6,34.0634563,-118.3008976,Normandie / 6th,50.2,206,https://www.google.com/maps/place/?q=place_id:ChIJCUNzt4K4woAR-z4MIi0ONo4
ChIJsy-fHYS4woARAZJOUb-wZEE,google,Rosen Karaoke,"3488 W 8th St, Los Angeles, CA 90005, USA",bar,3,4.6,,4.6,34.0574563,-118.3062128,8th / Serrano,39.8,66,https://www.google.com/maps/place/?q=place_id:ChIJsy-fHYS4woARAZJOUb-wZEE
ChIJkUaG1HjHwoARR-h-118evIw,google,Rain Pocha,"3377 Wilshire Blvd #209, Los Angeles, CA 90010, USA",bar,,4.6,,4.6,34.0620474,-118.297612,Wilshire / Alexandria,19.6,20,https://www.google.com/maps/place/?q=place_id:ChIJkUaG1HjHwoARR-h-118evIw
ChIJZ_wftzu5woAR6jlOq8RODLM,google,NiteThyme Wine Bar,"600 S Harvard Blvd #100, Los Angeles, CA 90005, USA",bar,,4.6,,4.6,34.0631563,-118.3038041,Wilshire / Harvard,144.8,20,https://www.google.com/maps/place/?q=place_id:ChIJZ_wftzu5woAR6jlOq8RODLM
ChIJ9_Bab-C_woARlEE6WW3SaVA,google,Rideau Speakeasy @ Arden,"8289 Santa Monica Blvd Unit #2, West Hollywood, CA 90046, USA",bar,,4.6,,4.6,34.0908729,-118.3700378,Santa Monica / Sweetzer,48.8,4,https://www.google.com/maps/place/?q=place_id:ChIJ9_Bab-C_woARlEE6WW3SaVA
ChIJOSXxaGG_woAR0ovLYrWmEGs,google,Las Perlas,"7511 Santa Monica Blvd, West Hollywood, CA 90046, USA",bar,,4.6,,4.6,34.090908,-118.3532257,Santa Monica / Gardner,31.3,4,https://www.google.com/maps/place/?q=place_id:ChIJOSXxaGG_woAR0ovLYrWmEGs
ChIJt67GKM6kwoARGhMUI1gFF_U,google,Harvelle's,"1432 4th St, Santa Monica, CA 90401, USA",bar,2,4.6,,4.6,34.0155449,-118.4945602,Broadway / 4th,90.8,4,https://www.google.com/maps/place/?q=place_id:ChIJt67GKM6kwoARGhMUI1gFF_U
ChIJOQwd2K_AwoARdHV02kF0BJg,google,Big Bar,"1927 Hillhurst Ave, Los Angeles, CA 90027, USA",bar,2,4.6,,4.6,34.1062205,-118.287784,Hollywood / New Hampshire Layover,655.7,217,https://www.google.com/maps/place/?q=place_id:ChIJOQwd2K_AwoARdHV02kF0BJg
ChIJtfpJdgbHwoARMPA3laMKsAI,google,1642,"1642 W Temple St, Los Angeles, CA 90026, USA",bar,1,4.6,,4.6,34.068251,-118.2623667,Beverly / Union,492.1,14,https://www.google.com/maps/place/?q=place_id:ChIJtfpJdgbHwoARMPA3laMKsAI
ChIJef1q_RrHwoARMnCXpKfCz3o,google,Thunderbolt,"1263 W Temple St, Los Angeles, CA 90026, USA",bar,2,4.6,,4.6,34.0664107,-118.254126,Terminal 25,380.0,53,https://www.google.com/maps/place/?q=place_id:ChIJef1q_RrHwoARMnCXpKfCz3o
ChIJhVIrtTC7woARq_RChG1i0QY,google,dots space KARAOKE,"2130 Sawtelle Blvd #101, Los Angeles, CA 90025, USA",bar,,4.6,,4.6,34.0390561,-118.4414552,Nebraska / Sepulveda,761.6,4,https://www.google.com/maps/place/?q=place_id:ChIJhVIrtTC7woARq_RChG1i0QY
ChIJ0aqzdae8woAR20Zmm1OF1PA,google,MiniLuxe Brentwood,"11961 San Vicente Blvd, Los Angeles, CA 90049, USA",bar,,4.6,,4.6,34.0526712,-118.4714881,Wilshire / Westgate,957.9,20,https://www.google.com/maps/place/?q=place_id:ChIJ0aqzdae8woAR20Zmm1OF1PA
ChIJHVd1HZK7woARyBj9m1OdCXE,google,The Maybourne Bar,"225 N Canon Dr, Beverly Hills, CA 90210, USA",bar,,4.6,,4.6,34.067965,-118.3987511,Wilshire / Rodeo,294.7,20,https://www.google.com/maps/place/?q=place_id:ChIJHVd1HZK7woARyBj9m1OdCXE
ChIJWV6pzTu_woARVPHUJ8JhQng,google,Hotel Cafe,"1623 N Cahuenga Blvd, Los Angeles, CA 90028, USA",bar,2,4.6,,4.6,34.1004017,-118.3298327,Hollywood / Cahuenga,120.4,217,https://www.google.com/maps/place/?q=place_id:ChIJWV6pzTu_woARVPHUJ8JhQng
ChIJh5VWNjq_woARU24M7xPvm8Q,google,The Record Parlour,"6408 Selma Ave, Los Angeles, CA 90028, USA",bar,,4.6,,4.6,34.099653,-118.3299784,Sunset / Wilcox,187.3,2,https://www.google.com/maps/place/?q=place_id:ChIJh5VWNjq_woARU24M7xPvm8Q
ChIJtfVSxTu_woAR5WlTMq6WaqU,google,Tramp Stamp Granny's,"1638 N Cahuenga Blvd, Los Angeles, CA 90028, USA",bar,,4.6,,4.6,34.1009389,-118.3294278,Hollywood / Cahuenga,68.8,217,https://www.google.com/maps/place/?q=place_id:ChIJtfVSxTu_woAR5WlTMq6WaqU
ChIJZ1vtEzm_woAR0q2ByZ2bzVY,google,LP Vinyl Bar,"1704 Vine St, Los Angeles, CA 90028, USA",bar,2,4.6,,4.6,34.1019216,-118.3264883,Vine / Hollywood,16.8,210,https://www.google.com/maps/place/?q=place_id:ChIJZ1vtEzm_woAR0q2ByZ2bzVY
ChIJtYFlqDy_woARKe-88AD70s4,google,LONO Hollywood,"6611 Hollywood Blvd, Los Angeles, CA 90048, USA",bar,2,4.6,,4.6,34.1018759,-118.3338012,Hollywood / Whitley,54.5,217,https://www.google.com/maps/place/?q=place_id:ChIJtYFlqDy_woARKe-88AD70s4
ChIJuwOh80K_woARoIAGFAq6ht8,google,Knucklehead Hollywood,"6202 Santa Monica Blvd, Los Angeles, CA 90038, USA",bar,,4.6,,4.6,34.0905991,-118.3246754,Santa Monica / Vine,152.3,4,https://www.google.com/maps/place/?q=place_id:ChIJuwOh80K_woARoIAGFAq6ht8
ChIJrfZY5mfDwoARMs_GT7q56Xg,google,Monopole by WineRx,"21 S El Molino Ave, Pasadena, CA 91101, USA",bar,,4.6,,4.6,34.1454371,-118.1370653,Woodward / Garfield,5372.5,78,https://www.google.com/maps/place/?q=place_id:ChIJrfZY5mfDwoARMs_GT7q56Xg
ChIJ2XiKrnHDwoAR7R-UL-Tyntg,google,The Cellar: A Wine Library,"26 E Colorado Blvd, Pasadena, CA 91105, USA",bar,,4.6,,4.6,34.1455094,-118.1498764,Main / Fremont,5570.6,78,https://www.google.com/maps/place/?q=place_id:ChIJ2XiKrnHDwoAR7R-UL-Tyntg
ChIJ76j2yLfDwoAR17Pd_rkcTcw,google,10 1/4 Pasadena,"12 E Colorado Blvd, Pasadena, CA 91105, USA",bar,,4.6,,4.6,34.1456217,-118.1501881,Main / Fremont,5582.0,78,https://www.google.com/maps/place/?q=place_id:ChIJ76j2yLfDwoAR17Pd_rkcTcw
ChIJayY3ckLDwoARiQCEdyj1paE,google,Behind Bars,"42 Mills Pl, Pasadena, CA 91105, USA",bar,,4.6,,4.6,34.1452163,-118.1510111,Main / Fremont,5534.7,78,https://www.google.com/maps/place/?q=place_id:ChIJayY3ckLDwoARiQCEdyj1paE
ChIJa5fV28rHwoAR13Q3P5CdiPo,google,Crane's Bar Downtown,"810 S Spring St, Los Angeles, CA 90014, USA",bar,2,4.5,,4.5,34.0428017,-118.2537452,Spring / 9th,64.5,45,https://www.google.com/maps/place/?q=place_id:ChIJa5fV28rHwoAR13Q3P5CdiPo
ChIJYRxXCTnGwoARRisFMg-cGS8,google,EightyTwo,"707 E 4th Pl, Los Angeles, CA 90013, USA",bar,2,4.5,,4.5,34.045387,-118.237457,5th / Central,449.7,16,https://www.google.com/maps/place/?q=place_id:ChIJYRxXCTnGwoARRisFMg-cGS8
ChIJt7WimEvGwoAR_jB4MtNywYk,google,The Grayson Bar,"351 S Broadway, Los Angeles, CA 90013, USA",bar,2,4.5,,4.5,34.0499774,-118.2493608,Hill / 4th,109.1,4,https://www.google.com/maps/place/?q=place_id:ChIJt7WimEvGwoAR_jB4MtNywYk
ChIJi2n_QrTHwoARkgY9DE5o8q0,google,Karl Strauss Brewing Company,"600 Wilshire Blvd Suite 100, Los Angeles, CA 90017, USA",bar,2,4.5,,4.5,34.0479303,-118.2562851,7th / Hope,106.8,51,https://www.google.com/maps/place/?q=place_id:ChIJi2n_QrTHwoARkgY9DE5o8q0
ChIJa-yZkxvHwoARF8aDKibbOtw,google,El Prado,"1805 Sunset Blvd, Los Angeles, CA 90026, USA",bar,2,4.5,,4.5,34.0778909,-118.2595149,Sunset / Park,188.1,4,https://www.google.com/maps/place/?q=place_id:ChIJa-yZkxvHwoARF8aDKibbOtw
ChIJGdwuWpq4woARjrtWZMlRwzQ,google,Frank 'n Hank,"518 S Western Ave, Los Angeles, CA 90020, USA",bar,1,4.5,,4.5,34.0647274,-118.3089035,Western / 5th,100.8,210,https://www.google.com/maps/place/?q=place_id:ChIJGdwuWpq4woARjrtWZMlRwzQ
ChIJsyZlitu5woARmX5jfVE40l0,google,Concerto Lounge,"610 S Serrano Ave, Los Angeles, CA 90005, USA",bar,,4.5,,4.5,34.0630497,-118.3063539,Wilshire / Serrano,133.9,20,https://www.google.com/maps/place/?q=place_id:ChIJsyZlitu5woARmX5jfVE40l0
ChIJ5zjs7cG-woARnageqL3aafs,google,Laugh Factory,"8001 Sunset Blvd, Los Angeles, CA 90046, USA",bar,3,4.5,,4.5,34.098231,-118.3644936,Sunset / Crescent Heights,91.5,2,https://www.google.com/maps/place/?q=place_id:ChIJ5zjs7cG-woARnageqL3aafs
ChIJIb8VQry-woAR27kU61BqE8o,google,Bar 1200,"1200 Alta Loma Rd, West Hollywood, CA 90069, USA",bar,4,4.5,,4.5,34.0922719,-118.3775666,Sunset / Sunset Plaza,182.7,2,https://www.google.com/maps/place/?q=place_id:ChIJIb8VQry-woAR27kU61BqE8o
ChIJ2WzoA8alwoARafJZhTEsKvA,google,Illusion Magic Lounge,"1418 4th St, Santa Monica, CA 90401, USA",bar,,4.5,,4.5,34.0158644,-118.4948374,Santa Monica / 4th,88.4,720,https://www.google.com/maps/place/?q=place_id:ChIJ2WzoA8alwoARafJZhTEsKvA
ChIJlSiO2YPHwoARUaXxL_wD-Gg,google,Bar Flores,"1542 Sunset Blvd, Los Angeles, CA 90026, USA",bar,3,4.5,,4.5,34.07626,-118.25667,Sunset / Echo Park,95.8,4,https://www.google.com/maps/place/?q=place_id:ChIJlSiO2YPHwoARUaXxL_wD-Gg
ChIJTxNVCtvHwoARP6HA_wpcSVg,google,Bar Henry,"1228 Sunset Blvd, Los Angeles, CA 90026, USA",bar,,4.5,,4.5,34.0690343,-118.2507302,Sunset / Marion,89.9,4,https://www.google.com/maps/place/?q=place_id:ChIJTxNVCtvHwoARP6HA_wpcSVg
ChIJYTYv5327woARMiu7SITyrBA,google,Offhand Wine Bar,"3008 Santa Monica Blvd SuIte A, Santa Monica, CA 90404, USA",bar,,4.5,,4.5,34.0364206,-118.4701297,Wilshire / Berkeley,432.5,20,https://www.google.com/maps/place/?q=place_id:ChIJYTYv5327woARMiu7SITyrBA
ChIJKRZUq4a7woARv1TRO7Pa8Kw,google,Above Sixty,"9360 Wilshire Blvd, Beverly Hills, CA 90212, USA",bar,,4.5,,4.5,34.0668595,-118.3960903,Wilshire / Rexford,167.7,20,https://www.google.com/maps/place/?q=place_id:ChIJKRZUq4a7woARv1TRO7Pa8Kw
ChIJ41YenDa_woARL0VZGKz0gjk,google,Sassafras Saloon,"1233 Vine St, Los Angeles, CA 90038, USA",bar,2,4.5,,4.5,34.09353249999999,-118.3268432,Vine / Lexington,84.1,210,https://www.google.com/maps/place/?q=place_id:ChIJ41YenDa_woARL0VZGKz0gjk
ChIJS-ltvCO_woARu-Sma4ZIIaI,google,Power House Bar,"1714 Highland Ave, Los Angeles, CA 90028, USA",bar,2,4.5,,4.5,34.1021287,-118.3384586,Hollywood / Highland,70.7,217,https://www.google.com/maps/place/?q=place_id:ChIJS-ltvCO_woARu-Sma4ZIIaI
ChIJOTIHzTu_woARfS71cm5CCcc,google,Burgundy Room,"1621 1/2 N Cahuenga Blvd, Los Angeles, CA 90028, USA",bar,1,4.5,,4.5,34.100378,-118.3297626,Hollywood / Cahuenga,123.0,217,https://www.google.com/maps/place/?q=place_id:ChIJOTIHzTu_woARfS71cm5CCcc
ChIJVdCAWjy_woAR0jpaF0YxwYE,google,The Brickyard Pub Hollywood,"1810 Wilcox Ave, Los Angeles, CA 90028, USA",bar,1,4.5,,4.5,34.1041667,-118.3305556,Cahuenga / Yucca Layover,51.8,210,https://www.google.com/maps/place/?q=place_id:ChIJVdCAWjy_woAR0jpaF0YxwYE
ChIJE7xUkXHDwoARH5MgT_4Ni_k,google,The Blind Donkey,"53 Union St, Pasadena, CA 91103, USA",bar,2,4.5,,4.5,34.1468816,-118.1492946,Main / Fremont,5725.5,78,https://www.google.com/maps/place/?q=place_id:ChIJE7xUkXHDwoARH5MgT_4Ni_k
ChIJjfzzvnHDwoARFn1EkX_wgKU,google,The Speakeasy,"25 N Raymond Ave, Pasadena, CA 91103, USA",bar,2,4.5,,4.5,34.1463234,-118.1490761,Main / Fremont,5664.5,78,https://www.google.com/maps/place/?q=place_id:ChIJjfzzvnHDwoARFn1EkX_wgKU
ChIJacuQjkHDwoARl2giHUqMp6c,google,The Dungeon,"72 N Fair Oaks Ave, Pasadena, CA 91103, USA",bar,,4.5,,4.5,34.1471413,-118.1501883,Main / Fremont,5750.8,78,https://www.google.com/maps/place/?q=place_id:ChIJacuQjkHDwoARl2giHUqMp6c
ChIJ4YGn0KbDwoAR_9vT5-4biNs,google,The 1894,"695 E Colorado Blvd, Pasadena, CA 91101, USA",bar,,4.5,,4.5,34.1460387,-118.1360641,Woodward / Garfield,5425.7,78,https://www.google.com/maps/place/?q=place_id:ChIJ4YGn0KbDwoAR_9vT5-4biNs
ChIJNx5chbXHwoARcdgHCYML840,google,Golden Gopher,"417 W 8th St, Los Angeles, CA 90014, USA",bar,2,4.4,,4.4,34.0450353,-118.2562027,Olive / 8th,62.8,14,https://www.google.com/maps/place/?q=place_id:ChIJNx5chbXHwoARcdgHCYML840
ChIJqxUvBbTHwoARTl73yPxPvO4,google,Shoo Shoo Baby,"717 W 7th St, Los Angeles, CA 90017, USA",bar,2,4.4,,4.4,34.0483803,-118.2579674,7th / Hope,63.5,51,https://www.google.com/maps/place/?q=place_id:ChIJqxUvBbTHwoARTl73yPxPvO4
ChIJMYBwBj_HwoARQUs97ZF4MIU,google,The Thirsty Crow,"2939 Sunset Blvd, Los Angeles, CA 90026, USA",bar,2,4.4,,4.4,34.0836876,-118.2737454,Sunset / Silver Lake,73.5,2,https://www.google.com/maps/place/?q=place_id:ChIJMYBwBj_HwoARQUs97ZF4MIU
ChIJHRtGw2THwoAReX6EOcNEn_U,google,Shatto 39 Lanes,"3255 4th St, Los Angeles, CA 90020, USA",bar,,4.4,,4.4,34.06738,-118.2912775,Vermont / 4th,28.7,204,https://www.google.com/maps/place/?q=place_id:ChIJHRtGw2THwoAReX6EOcNEn_U
ChIJy5bAtpy4woAR1CmisQe8Td4,google,Feel Karaoke,"600 S Harvard Blvd 2nd Floor, Los Angeles, CA 90005, USA",bar,2,4.4,,4.4,34.0631563,-118.3038041,Wilshire / Harvard,144.8,20,https://www.google.com/maps/place/?q=place_id:ChIJy5bAtpy4woAR1CmisQe8Td4
ChIJ62K-Pg3HwoAR7y2Z3NxmOoQ,google,Glow Lounge & Karaoke (글로우 노래방),"3188 W 8th St, Los Angeles, CA 90005, USA",bar,,4.4,,4.4,34.0575631,-118.297495,8th / Mariposa,89.0,66,https://www.google.com/maps/place/?q=place_id:ChIJ62K-Pg3HwoAR7y2Z3NxmOoQ
ChIJ2fJqwcW-woARlAQY-0OM_ck,google,Surly Goat,"7929 Santa Monica Blvd, West Hollywood, CA 90046, USA",bar,2,4.4,,4.4,34.0911115,-118.3626265,Santa Monica / Fairfax,78.0,218,https://www.google.com/maps/place/?q=place_id:ChIJ2fJqwcW-woARlAQY-0OM_ck
ChIJnz0QzDS7woARptBu0k-QJfM,google,The Chestnut Club,"1348 14th St, Santa Monica, CA 90404, USA",bar,2,4.4,,4.4,34.0241965,-118.4861021,Santa Monica / 14th,39.6,4,https://www.google.com/maps/place/?q=place_id:ChIJnz0QzDS7woARptBu0k-QJfM
ChIJPYF6LCq7woARbbAdpKakJ_o,google,TR!P Santa Monica,"2101 Lincoln Blvd, Santa Monica, CA 90405, USA",bar,,4.4,,4.4,34.010893,-118.480957,5th / Colorado,914.5,20,https://www.google.com/maps/place/?q=place_id:ChIJPYF6LCq7woARbbAdpKakJ_o
ChIJfaj449WkwoARoE-5tvf1cvo,google,The Living Room,"1 Pico Blvd, Santa Monica, CA 90401, USA",bar,,4.4,,4.4,34.0067293,-118.4918095,5th / Colorado,809.3,20,https://www.google.com/maps/place/?q=place_id:ChIJfaj449WkwoARoE-5tvf1cvo
ChIJWy73kim6woARFLR8L69JXy0,google,Seventy7 Lounge,"3843 Main St, Culver City, CA 90232, USA",bar,2,4.4,,4.4,34.0244336,-118.394846,Venice / Bagley,108.5,33,https://www.google.com/maps/place/?q=place_id:ChIJWy73kim6woARFLR8L69JXy0
ChIJs8wj3ym6woAR3gXCPkDf49s,google,The Culver Theater,"9500 Culver Blvd, Culver City, CA 90232, USA",bar,,4.4,,4.4,34.023494,-118.3941312,Venice / Bagley,220.7,33,https://www.google.com/maps/place/?q=place_id:ChIJs8wj3ym6woAR3gXCPkDf49s
ChIJe0hgwfu7woAR4YklgkzMovg,google,The Auld Fella - Culver City,"9375 Culver Blvd, Culver City, CA 90232, USA",bar,2,4.4,,4.4,34.0248142,-118.3940737,Venice / Bagley,92.0,33,https://www.google.com/maps/place/?q=place_id:ChIJe0hgwfu7woAR4YklgkzMovg
ChIJm5hwoADBwoARuhxQiLoe-ZQ,google,Vandell,"1966 Hillhurst Ave, Los Angeles, CA 90027, USA",bar,,4.4,,4.4,34.1072714,-118.2872178,Hollywood / New Hampshire Layover,778.1,217,https://www.google.com/maps/place/?q=place_id:ChIJm5hwoADBwoARuhxQiLoe-ZQ
ChIJK7XaNUW9woARBwHA70YfaS4,google,S Bar Brentwood,"11777 San Vicente Blvd Suite 100, Los Angeles, CA 90049, USA",bar,,4.4,,4.4,34.0536143,-118.4684679,Wilshire / Barrington,817.0,720,https://www.google.com/maps/place/?q=place_id:ChIJK7XaNUW9woARBwHA70YfaS4
ChIJayJxQjS_woARavKnsb3Qpn8,google,The Three Clubs,"1123 Vine St, Los Angeles, CA 90038, USA",bar,2,4.4,,4.4,34.0913192,-118.3269609,Santa Monica / Vine,49.8,4,https://www.google.com/maps/place/?q=place_id:ChIJayJxQjS_woARavKnsb3Qpn8
ChIJw6-qAzm_woARoOtCR1Pyil0,google,Frolic Room,"6245 Hollywood Blvd, Los Angeles, CA 90028, USA",bar,1,4.4,,4.4,34.1017836,-118.325876,Hollywood / Argyle,56.6,217,https://www.google.com/maps/place/?q=place_id:ChIJw6-qAzm_woARoOtCR1Pyil0
ChIJt__jYjm_woAR7omv7QqKvy4,google,The Study Hollywood,"6356 Hollywood Blvd 1st floor, Los Angeles, CA 90028, USA",bar,2,4.4,,4.4,34.101412,-118.328527,Hollywood / Ivar,20.8,217,https://www.google.com/maps/place/?q=place_id:ChIJt__jYjm_woAR7omv7QqKvy4
ChIJiYYIpnHDwoARAp-8P3vi79U,google,Kings Row Gastropub,"20 E Colorado Blvd Suite 102, Pasadena, CA 91105, USA",bar,2,4.4,,4.4,34.1455506,-118.1500828,Main / Fremont,5574.4,78,https://www.google.com/maps/place/?q=place_id:ChIJiYYIpnHDwoARAp-8P3vi79U
ChIJKZfKAAqzwoARXxnQFc3cVCQ,google,X Speakeasy,"1017 Manhattan Ave, Manhattan Beach, CA 90266, USA",bar,,4.4,,4.4,33.8838722,-118.4104442,Sepulveda / 8th,1320.8,232,https://www.google.com/maps/place/?q=place_id:ChIJKZfKAAqzwoARXxnQFc3cVCQ
ChIJ2dxZZ0rGwoARS61-9g0ntlw,google,BUZZ wine beer bottleshop & bar,"460 S Spring St, Los Angeles, CA 90013, USA",bar,2,4.3,,4.3,34.0475743,-118.249297,5th / Spring,22.9,53,https://www.google.com/maps/place/?q=place_id:ChIJ2dxZZ0rGwoARS61-9g0ntlw
ChIJYTpqjbPHwoAReolc2J84UY8,google,The Rooftop,"550 Flower St, Los Angeles, CA 90071, USA",bar,3,4.3,,4.3,34.05016700000001,-118.257147,5th / Flower,196.9,16,https://www.google.com/maps/place/?q=place_id:ChIJYTpqjbPHwoAReolc2J84UY8
ChIJm-VxejXGwoAR-Gm4fGoLk7I,google,The Association,"110 E 6th St, Los Angeles, CA 90014, USA",bar,2,4.3,,4.3,34.0448897,-118.2496678,6th / Main,20.0,20,https://www.google.com/maps/place/?q=place_id:ChIJm-VxejXGwoAR-Gm4fGoLk7I
ChIJewhavEnGwoAR9ZSMQTUaxzI,google,The Lexington Bar,"129 E 3rd St, Los Angeles, CA 90013, USA",bar,,4.3,,4.3,34.0489674,-118.2450445,Spring / 3rd,249.6,28,https://www.google.com/maps/place/?q=place_id:ChIJewhavEnGwoAR9ZSMQTUaxzI
ChIJZamsN0nHwoARg4rVx5zAB44,google,4100 Bar,"1087 Manzanita St, Los Angeles, CA 90029, USA",bar,1,4.3,,4.3,34.0930087,-118.2815088,Sunset / Sanborn,62.6,2,https://www.google.com/maps/place/?q=place_id:ChIJZamsN0nHwoARg4rVx5zAB44
ChIJLwuhHU_HwoARdQQ1PfOn6B4,google,Eagle LA,"4219 Santa Monica Blvd, Los Angeles, CA 90029, USA",bar,2,4.3,,4.3,34.0911545,-118.2839727,Santa Monica / Hoover,45.3,4,https://www.google.com/maps/place/?q=place_id:ChIJLwuhHU_HwoARdQQ1PfOn6B4
ChIJufID4ynHwoAR8WrEEQZ01Ys,google,Jaguar Room,"2815 Sunset Blvd Suite 103, Los Angeles, CA 90026, USA",bar,,4.3,,4.3,34.0823975,-118.2718678,Sunset / Silver Lake,154.9,2,https://www.google.com/maps/place/?q=place_id:ChIJufID4ynHwoAR8WrEEQZ01Ys
ChIJqXVPrFnHwoARHRmEYTHmXzw,google,Seco,"3820 Sunset Blvd, Los Angeles, CA 90026, USA",bar,,4.3,,4.3,34.0912267,-118.279481,Sunset / Lucile,56.5,2,https://www.google.com/maps/place/?q=place_id:ChIJqXVPrFnHwoARHRmEYTHmXzw
ChIJLf5GtxDHwoARju2gRZGgMaw,google,Bar Bandini,"2150 Sunset Blvd, Los Angeles, CA 90026, USA",bar,2,4.3,,4.3,34.0773082,-118.2654713,Sunset / Rosemont,92.5,2,https://www.google.com/maps/place/?q=place_id:ChIJLf5GtxDHwoARju2gRZGgMaw
ChIJwb7aC9C-woAR_4vCXwNWoM0,google,Bar Lubitsch,"7702 Santa Monica Blvd, West Hollywood, CA 90046, USA",bar,2,4.3,,4.3,34.0906465,-118.3568709,Santa Monica / Spaulding,65.6,4,https://www.google.com/maps/place/?q=place_id:ChIJwb7aC9C-woAR_4vCXwNWoM0
ChIJMZzlCgC_woARcnCpwwrujTo,google,Mic’s Bar,"7994 Santa Monica Blvd, West Hollywood, CA 90046, USA",bar,,4.3,,4.3,34.0905645,-118.364581,Santa Monica / Crescent Heights,93.2,4,https://www.google.com/maps/place/?q=place_id:ChIJMZzlCgC_woARcnCpwwrujTo
ChIJ8XuaN9CkwoAR-45E103dVf8,google,Bar Chloe,"1449 2nd St, Santa Monica, CA 90401, USA",bar,2,4.3,,4.3,34.0139744,-118.4956563,Broadway / Ocean,132.8,4,https://www.google.com/maps/place/?q=place_id:ChIJ8XuaN9CkwoAR-45E103dVf8
ChIJZdSkG3DGwoARAn-8yF-Kvvc,google,Two Bit Circus,"1220 3rd Street Promenade, Santa Monica, CA 90401, USA",bar,,4.3,,4.3,34.0177573,-118.4988027,4th / Arizona,165.8,720,https://www.google.com/maps/place/?q=place_id:ChIJZdSkG3DGwoARAn-8yF-Kvvc
ChIJPSLK8jq6woARpLvmAs0-gGs,google,Blind Barber,"10797 Washington Blvd, Culver City, CA 90232, USA",bar,,4.3,,4.3,34.0158678,-118.4069313,Venice / Overland,308.4,33,https://www.google.com/maps/place/?q=place_id:ChIJPSLK8jq6woARpLvmAs0-gGs
ChIJp1ESchC7woAR_nmm6VkGigU,google,The Lounge at Ugo,"3865 Cardiff Ave suite B, Culver City, CA 90232, USA",bar,,4.3,,4.3,34.0235838,-118.3951473,Venice / Bagley,205.7,33,https://www.google.com/maps/place/?q=place_id:ChIJp1ESchC7woAR_nmm6VkGigU
ChIJC9uiZzO7woAR7TxfbCStiXA,google,Velvet Lounge,"The Culver Hotel, 9400 Culver Blvd, Culver City, CA 90232, USA",bar,,4.3,,4.3,34.0239233,-118.3940638,Venice / Bagley,177.4,33,https://www.google.com/maps/place/?q=place_id:ChIJC9uiZzO7woAR7TxfbCStiXA
ChIJOwpNUEzHwoARAPHUIkcyjdM,google,Akbar,"4356 Sunset Blvd, Los Angeles, CA 90029, USA",bar,1,4.3,,4.3,34.0956782,-118.2842667,Sunset / Fountain,24.3,2,https://www.google.com/maps/place/?q=place_id:ChIJOwpNUEzHwoARAPHUIkcyjdM
ChIJkxus-rHAwoARb_ENjiofJE4,google,Drawing Room,"1800 Hillhurst Ave, Los Angeles, CA 90027, USA",bar,1,4.3,,4.3,34.1037429,-118.2869326,Hollywood / Vermont,523.1,206,https://www.google.com/maps/place/?q=place_id:ChIJkxus-rHAwoARb_ENjiofJE4
ChIJ60D_6A67woARz_0TOqYmnYM,google,neat.,"11780 W Pico Blvd, Los Angeles, CA 90064, USA",bar,2,4.3,,4.3,34.030608,-118.447164,Santa Monica / Barrington,1693.2,4,https://www.google.com/maps/place/?q=place_id:ChIJ60D_6A67woARz_0TOqYmnYM
ChIJy47lI4a7woARwoe1Fjp30Qc,google,Killer Yacht Club Speakeasy,"4211 Admiralty Way, Marina Del Rey, CA 90292, USA",bar,,4.3,,4.3,33.9831628,-118.4566901,Venice / Abbot Kinney,814.6,33,https://www.google.com/maps/place/?q=place_id:ChIJy47lI4a7woARwoe1Fjp30Qc
ChIJFygMVwi7woARU8c8WepSPtY,google,The Whisky Bar,"225 N Canon Dr, Beverly Hills, CA 90210, USA",bar,,4.3,,4.3,34.067965,-118.3987511,Wilshire / Rodeo,294.7,20,https://www.google.com/maps/place/?q=place_id:ChIJFygMVwi7woARU8c8WepSPtY
ChIJueS5KUm_woARdapuplPMXBY,google,"The ""Bronson"" Bar","5851 Sunset Blvd, Los Angeles, CA 90028, USA",bar,1,4.3,,4.3,34.0982917,-118.3175528,Sunset / Bronson,26.7,2,https://www.google.com/maps/place/?q=place_id:ChIJueS5KUm_woARdapuplPMXBY
ChIJUd_AriS_woARva804oIV_Gk,google,Bar Sinister,"1652 N Cherokee Ave, Los Angeles, CA 90028, USA",bar,2,4.3,,4.3,34.1011412,-118.334943,Hollywood / Las Palmas,112.7,217,https://www.google.com/maps/place/?q=place_id:ChIJUd_AriS_woARva804oIV_Gk
ChIJl9fwEzi_woARA9c1iEzQS4s,google,Good Times at Davey Wayne's,"1611 N El Centro Ave, Los Angeles, CA 90028, USA",bar,2,4.3,,4.3,34.1002939,-118.323979,Hollywood / Argyle,185.5,217,https://www.google.com/maps/place/?q=place_id:ChIJl9fwEzi_woARA9c1iEzQS4s
ChIJYVf3ghK_woARP6A2MhOlCbs,google,I|O Rooftop Hollywood,"1400 N Cahuenga Blvd, Los Angeles, CA 90028, USA",bar,,4.3,,4.3,34.0964595,-118.329255,Sunset / Ivar,161.6,2,https://www.google.com/maps/place/?q=place_id:ChIJYVf3ghK_woARP6A2MhOlCbs
ChIJyy1JJ7vDwoARDts1XcLjCnQ,google,Ladies and Gentlemen - A Cocktail Experience,"59 E Colorado Blvd B100, Pasadena, CA 91105, USA",bar,,4.3,,4.3,34.1460596,-118.1492284,Main / Fremont,5634.5,78,https://www.google.com/maps/place/?q=place_id:ChIJyy1JJ7vDwoARDts1XcLjCnQ
ChIJ7UPWdzXGwoARv3xPWAYT0ok,google,Las Perlas,"107 E 6th St, Los Angeles, CA 90014, USA",bar,2,4.2,,4.2,34.04509840000001,-118.2495126,6th / Main,23.7,20,https://www.google.com/maps/place/?q=place_id:ChIJ7UPWdzXGwoARv3xPWAYT0ok
ChIJ78GEOkrGwoARwbGitYQLBWQ,google,The Continental Club,"116 4th St, Los Angeles, CA 90013, USA",bar,2,4.2,,4.2,34.0484297,-118.2478712,Spring / 4th,78.8,45,https://www.google.com/maps/place/?q=place_id:ChIJ78GEOkrGwoARwbGitYQLBWQ
ChIJLy00qU7HwoARAGjt9kLQRNU,google,El Cid,"4212 Sunset Blvd, Los Angeles, CA 90029, USA",bar,2,4.2,,4.2,34.0938159,-118.2824251,Sunset / Bates,63.4,2,https://www.google.com/maps/place/?q=place_id:ChIJLy00qU7HwoARAGjt9kLQRNU
ChIJIaFl64K4woARfY6BevmwIQg,google,Break Room 86,"630 S Ardmore Ave, Los Angeles, CA 90010, USA",bar,2,4.2,,4.2,34.0622812,-118.3014419,Wilshire / Normandie,111.3,20,https://www.google.com/maps/place/?q=place_id:ChIJIaFl64K4woARfY6BevmwIQg
ChIJk1Tz4H7HwoARWyWUOe4Unsg,google,Barra Latina,"3127 W 8th St, Los Angeles, CA 90005, USA",bar,,4.2,,4.2,34.0578595,-118.2951349,8th / Catalina,8.9,66,https://www.google.com/maps/place/?q=place_id:ChIJk1Tz4H7HwoARWyWUOe4Unsg
ChIJezksu0y5woARqKVoIbpu_w8,google,Hera Bar & Karaoke,"3514 W 8th St, Los Angeles, CA 90005, USA",bar,,4.2,,4.2,34.057246,-118.3072444,8th / Serrano,60.0,66,https://www.google.com/maps/place/?q=place_id:ChIJezksu0y5woARqKVoIbpu_w8
ChIJT33HIH64woAR1cgmuy5sEXs,google,Palm Tree Karaoke,"3109 W Olympic Blvd Floor 2, Los Angeles, CA 90006, USA",bar,,4.2,,4.2,34.0529003,-118.3034996,Olympic / Harvard,49.0,28,https://www.google.com/maps/place/?q=place_id:ChIJT33HIH64woAR1cgmuy5sEXs
ChIJK78zJsC-woARg7y31GEswN8,google,Bar Marmont,"8171 Sunset Blvd, Los Angeles, CA 90046, USA",bar,3,4.2,,4.2,34.0982255,-118.3673677,Crescent Heights / Sunset,145.7,218,https://www.google.com/maps/place/?q=place_id:ChIJK78zJsC-woARg7y31GEswN8
ChIJHRAmNsSkwoARWsE8WVQPhcw,google,The Bungalow Santa Monica,"101 Wilshire Blvd, Santa Monica, CA 90401, USA",bar,3,4.2,,4.2,34.01745700000001,-118.501492,4th / Arizona,415.9,720,https://www.google.com/maps/place/?q=place_id:ChIJHRAmNsSkwoARWsE8WVQPhcw
ChIJMwZdJMqkwoARWu91djzF0r0,google,JP's Sports Bar & Grill,"925 Wilshire Blvd, Santa Monica, CA 90401, USA",bar,1,4.2,,4.2,34.0238022,-118.4930258,Wilshire / 11th,134.4,20,https://www.google.com/maps/place/?q=place_id:ChIJMwZdJMqkwoARWu91djzF0r0
ChIJ1UPxk4KlwoARvWZJRf7joJk,google,Holey Moley Golf Club Santa Monica,"1315 3rd Street Promenade, Santa Monica, CA 90401, USA",bar,,4.2,,4.2,34.0166292,-118.4970469,4th / Arizona,143.9,720,https://www.google.com/maps/place/?q=place_id:ChIJ1UPxk4KlwoARvWZJRf7joJk
ChIJ4fztsALHwoAR21OfOy6ogdI,google,The Short Stop,"1455 Sunset Blvd #3457, Los Angeles, CA 90026, USA",bar,1,4.2,,4.2,34.0753365,-118.2535448,Sunset / Portia,58.8,4,https://www.google.com/maps/place/?q=place_id:ChIJ4fztsALHwoAR21OfOy6ogdI
ChIJGbrA4GHHwoARpSjh59biZrQ,google,Lowboy,"1540 Sunset Blvd, Los Angeles, CA 90026, USA",bar,2,4.2,,4.2,34.0762828,-118.2567722,Sunset / Echo Park,86.5,4,https://www.google.com/maps/place/?q=place_id:ChIJGbrA4GHHwoARpSjh59biZrQ
ChIJG8E_l4O8woARfo9O-8qHCuk,google,Rocco's Tavern -Westwood,"1000 Gayley Ave, Los Angeles, CA 90024, USA",bar,2,4.2,,4.2,34.0618939,-118.4476878,Le Conte / Gayley,188.8,2,https://www.google.com/maps/place/?q=place_id:ChIJG8E_l4O8woARfo9O-8qHCuk
ChIJMSC_sbm6woARSvRYhotH5sY,google,Townhouse Venice,"52 Windward Ave, Venice, CA 90291, USA",bar,2,4.2,,4.2,33.9872091,-118.4726071,Main / Venice,164.5,33,https://www.google.com/maps/place/?q=place_id:ChIJMSC_sbm6woARSvRYhotH5sY
ChIJlU0Ogzy_woARU50hhruvVYs,google,No Vacancy,"1727 N Hudson Ave, Los Angeles, CA 90028, USA",bar,2,4.2,,4.2,34.1022632,-118.3325205,Hollywood / Whitley,84.7,217,https://www.google.com/maps/place/?q=place_id:ChIJlU0Ogzy_woARU50hhruvVYs
ChIJkbC92ju_woARtNjDOpWwj4M,google,Reload,"1640 N Cahuenga Blvd, Los Angeles, CA 90028, USA",bar,,4.2,,4.2,34.10107929999999,-118.3292619,Hollywood / Cahuenga,65.6,217,https://www.google.com/maps/place/?q=place_id:ChIJkbC92ju_woARtNjDOpWwj4M
ChIJNbb4MTq_woARM7vkdrupagQ,google,Hollywood Club Crawl,"1602 N Cahuenga Blvd, Los Angeles, CA 90028, USA",bar,,4.2,,4.2,34.0999651,-118.3293709,Hollywood / Cahuenga,173.1,217,https://www.google.com/maps/place/?q=place_id:ChIJNbb4MTq_woARM7vkdrupagQ
ChIJG481pnHDwoARgjCE8pEjqNw,google,The 35er,"12 E Colorado Blvd, Pasadena, CA 91105, USA",bar,1,4.2,,4.2,34.1455592,-118.1501553,Main / Fremont,5575.1,78,https://www.google.com/maps/place/?q=place_id:ChIJG481pnHDwoARgjCE8pEjqNw
ChIJaWK1TJOzwoARcJNTGqaUtgs,google,Side Door,"900 Manhattan Ave, Manhattan Beach, CA 90266, USA",bar,3,4.2,,4.2,33.8830119,-118.4094596,Sepulveda / 8th,1234.0,232,https://www.google.com/maps/place/?q=place_id:ChIJaWK1TJOzwoARcJNTGqaUtgs
ChIJY_4qesnHwoARoXBx1ZSINq0,google,The Mayan,"1038 S Hill St, Los Angeles, CA 90015, USA",bar,2,4.1,,4.1,34.0405519,-118.2592132,Hill / 11th,101.8,4,https://www.google.com/maps/place/?q=place_id:ChIJY_4qesnHwoARoXBx1ZSINq0
ChIJ10BYf0vGwoARdzJAvD5BjaY,google,La Cita Bar,"336 S Hill St, Los Angeles, CA 90013, USA",bar,1,4.1,,4.1,34.05077199999999,-118.2497017,Hill / 4th,74.8,4,https://www.google.com/maps/place/?q=place_id:ChIJ10BYf0vGwoARdzJAvD5BjaY
ChIJcwQ1Sj7HwoARCMF23jfZc_Y,google,The Silverlake Lounge,"2906 Sunset Blvd, Los Angeles, CA 90026, USA",bar,2,4.1,,4.1,34.0829163,-118.2736435,Sunset / Parkman,10.9,2,https://www.google.com/maps/place/?q=place_id:ChIJcwQ1Sj7HwoARCMF23jfZc_Y
ChIJMR6R-GbHwoAR4zaRk2qC2Qg,google,Kalaveras,"401 Silver Lake Blvd, Los Angeles, CA 90026, USA",bar,2,4.1,,4.1,34.0777594,-118.280595,Beverly / Virgil,637.1,14,https://www.google.com/maps/place/?q=place_id:ChIJMR6R-GbHwoAR4zaRk2qC2Qg
ChIJzWF5vYS4woARvILvLM8kCZE,google,Apt 503 Lounge,"3680 Wilshire Blvd 5th Floor, Los Angeles, CA 90010, USA",bar,2,4.1,,4.1,34.0613346,-118.3061774,Wilshire / Serrano,60.3,20,https://www.google.com/maps/place/?q=place_id:ChIJzWF5vYS4woARvILvLM8kCZE
ChIJt5HtNB3HwoARC6mznosTLXA,google,Little Joy Cocktails,"1477 Sunset Blvd, Los Angeles, CA 90026, USA",bar,2,4.1,,4.1,34.075662,-118.2544047,Sunset / Portia,28.9,4,https://www.google.com/maps/place/?q=place_id:ChIJt5HtNB3HwoARC6mznosTLXA
ChIJDz_oy_y7woAR6hNHebNhkn8,google,Monkey King,"1360 Westwood Blvd, Los Angeles, CA 90024, USA",bar,,4.1,,4.1,34.0559858,-118.4419057,Wilshire / Westwood,341.2,20,https://www.google.com/maps/place/?q=place_id:ChIJDz_oy_y7woAR6hNHebNhkn8
ChIJQ0dYz7-6woARMIx9p856Os0,google,The Brig,"1515 Abbot Kinney Blvd, Venice, CA 90291, USA",bar,2,4.1,,4.1,33.990402,-118.4641762,Venice / Abbot Kinney,172.7,33,https://www.google.com/maps/place/?q=place_id:ChIJQ0dYz7-6woARMIx9p856Os0
ChIJg8UGT4q7woARbjp-WeyNgg0,google,Kassi,"1697 Pacific Ave, Venice, CA 90291, USA",bar,,4.1,,4.1,33.9869585,-118.4725003,Main / Venice,162.3,33,https://www.google.com/maps/place/?q=place_id:ChIJg8UGT4q7woARbjp-WeyNgg0
ChIJU-eNypO7woARwJBY90BAuDI,google,Gran Blanco,"80 Windward Ave, Venice, CA 90291, USA",bar,,4.1,,4.1,33.9874684,-118.4723233,Main / Venice,135.9,33,https://www.google.com/maps/place/?q=place_id:ChIJU-eNypO7woARwJBY90BAuDI
ChIJ_UxPzju_woAR1jjcMsOv0hg,google,The Room Hollywood,"1626 N Cahuenga Blvd, Los Angeles, CA 90028, USA",bar,2,4.1,,4.1,34.100755,-118.3293059,Hollywood / Cahuenga,92.1,217,https://www.google.com/maps/place/?q=place_id:ChIJ_UxPzju_woAR1jjcMsOv0hg
ChIJk-XNTJOzwoAR7GbQ6_x1sVE,google,Downstairs Bar,"900 Manhattan Ave, Manhattan Beach, CA 90266, USA",bar,,4.1,,4.1,33.8829612,-118.4095993,Sepulveda / 8th,1247.3,232,https://www.google.com/maps/place/?q=place_id:ChIJk-XNTJOzwoAR7GbQ6_x1sVE
ChIJA7qR47PHwoAR_-1aVugyhec,google,Elevate Lounge,"811 Wilshire Blvd 21st floor, Los Angeles, CA 90017, USA",bar,2,4,,4.0,34.049694,-118.258233,7th / Flower,112.2,51,https://www.google.com/maps/place/?q=place_id:ChIJA7qR47PHwoAR_-1aVugyhec
ChIJbV8Hc8nHwoARDMnRiROHwCI,google,Blue Moon venues,"1053 S Hill St, Los Angeles, CA 90015, USA",bar,,4,,4.0,34.0404945,-118.2598614,Hill / 11th,58.4,4,https://www.google.com/maps/place/?q=place_id:ChIJbV8Hc8nHwoARDMnRiROHwCI
ChIJzW2xj33HwoARTsQxe1w7UfQ,google,Cafe Brass Monkey,"3440 Wilshire Blvd, Los Angeles, CA 90010, USA",bar,2,4,,4.0,34.0611533,-118.2990076,Wilshire / Alexandria,101.9,20,https://www.google.com/maps/place/?q=place_id:ChIJzW2xj33HwoARTsQxe1w7UfQ
ChIJgVJHVAC5woARh9s2W--gBRM,google,Jade Karaoke,"808 S Western Ave #202, Los Angeles, CA 90005, USA",bar,,4,,4.0,34.0569834,-118.308615,8th / Western,90.6,66,https://www.google.com/maps/place/?q=place_id:ChIJgVJHVAC5woARh9s2W--gBRM
ChIJUbaHNuSlwoAR4-tW2GF-7YQ,google,Velvet Rose Rooftop Lounge,"1301 Ocean Ave, Santa Monica, CA 90401, USA",bar,,4,,4.0,34.0152127,-118.4990017,Santa Monica / 3rd St Promenade,266.7,4,https://www.google.com/maps/place/?q=place_id:ChIJUbaHNuSlwoAR4-tW2GF-7YQ
ChIJidKklBzHwoARW8tF1_M_VRI,google,Gold Room,"1558 Sunset Blvd, Los Angeles, CA 90026, USA",bar,1,4,,4.0,34.0764558,-118.2571017,Sunset / Echo Park,50.5,4,https://www.google.com/maps/place/?q=place_id:ChIJidKklBzHwoARW8tF1_M_VRI
ChIJZeA7Wr-6woARuAAJVAe-62s,google,Roosterfish,"1302 Abbot Kinney Blvd, Venice, CA 90291, USA",bar,2,4,,4.0,33.9909689,-118.4680646,Venice Bl / Venice Wy,408.2,33,https://www.google.com/maps/place/?q=place_id:ChIJZeA7Wr-6woARuAAJVAe-62s
ChIJq2Fpm1DHwoARU8PdIPFicv4,google,STAR HOOKAH Lounge of Hollywood and Los Angeles,"6430 Hollywood Blvd, Los Angeles, CA 90028, USA",bar,2,4,,4.0,34.1013327,-118.3306546,Hollywood / Wilcox,48.1,217,https://www.google.com/maps/place/?q=place_id:ChIJq2Fpm1DHwoARU8PdIPFicv4
ChIJ-zy203HDwoARgNC1NKiPOZM,google,Ixtapa Cantina & Lounge,"119 E Colorado Blvd, Pasadena, CA 91105, USA",bar,2,4,,4.0,34.1459541,-118.14781,Main / Fremont,5631.0,78,https://www.google.com/maps/place/?q=place_id:ChIJ-zy203HDwoARgNC1NKiPOZM
ChIJQcwjZADDwoARKQ1YsYPeCa0,google,Agents Only Bar & Lounge,"303 Cordova St, Pasadena, CA 91101, USA",bar,,4,,4.0,34.142945,-118.1441316,Woodward / Garfield,5241.3,78,https://www.google.com/maps/place/?q=place_id:ChIJQcwjZADDwoARKQ1YsYPeCa0
ChIJAWmiLQDDwoAR1isvLXx2Ga4,google,Don's Colorado Grotto,"12 E Colorado Blvd, Pasadena, CA 91105, USA",bar,,4,,4.0,34.1455602,-118.1501695,Main / Fremont,5575.2,78,https://www.google.com/maps/place/?q=place_id:ChIJAWmiLQDDwoAR1isvLXx2Ga4
ChIJVc5lWUrGwoARTvxFUqBpo8w,google,Crocker Club,"453 S Spring St, Los Angeles, CA 90013, USA",bar,2,3.9,,3.9,34.0476609,-118.2496292,5th / Spring,16.7,16,https://www.google.com/maps/place/?q=place_id:ChIJVc5lWUrGwoARTvxFUqBpo8w
ChIJ0eVabUnGwoARp-JU3rlMD8s,google,The New Jalisco Bar,"245 Main St, Los Angeles, CA 90012, USA",bar,1,3.9,,3.9,34.0502685,-118.2454215,Spring / 2nd,120.5,45,https://www.google.com/maps/place/?q=place_id:ChIJ0eVabUnGwoARp-JU3rlMD8s
ChIJMx6oWUrGwoAR05-p426grps,google,Los Angeles Club Crawl,"830 S Broadway, Los Angeles, CA 90014, USA",bar,,3.9,,3.9,34.0429261,-118.2552584,Broadway / 8th,13.9,4,https://www.google.com/maps/place/?q=place_id:ChIJMx6oWUrGwoAR05-p426grps
ChIJ4Zx7vNS-woARi_aycUAi7qs,google,Glass Hookah Lounge,"7384 Melrose Ave, Los Angeles, CA 90046, USA",bar,,3.9,,3.9,34.0834604,-118.3509996,La Brea / Melrose,625.7,212,https://www.google.com/maps/place/?q=place_id:ChIJ4Zx7vNS-woARi_aycUAi7qs
ChIJlWoctjS7woARE2BY-SoHors,google,The Room Santa Monica,"1325 Santa Monica Blvd, Santa Monica, CA 90404, USA",bar,2,3.9,,3.9,34.024002,-118.486164,Santa Monica / 14th,54.6,4,https://www.google.com/maps/place/?q=place_id:ChIJlWoctjS7woARE2BY-SoHors
ChIJS6uPgjy_woARAkpRsio4Gs4,google,Dirty Laundry,"1725 N Hudson Ave, Los Angeles, CA 90028, USA",bar,2,3.9,,3.9,34.1020355,-118.3321725,Hollywood / Whitley,97.5,217,https://www.google.com/maps/place/?q=place_id:ChIJS6uPgjy_woARAkpRsio4Gs4
ChIJS51ZRTXGwoARg0i27rOvPMU,google,The Reserve,"650 S Spring St, Los Angeles, CA 90014, USA",bar,2,3.8,,3.8,34.0446156,-118.2518952,Spring / 7th,65.9,45,https://www.google.com/maps/place/?q=place_id:ChIJS51ZRTXGwoARg0i27rOvPMU
ChIJlQFcw73HwoARplQy4rm_p8k,google,Bar Stella,"3930 Sunset Blvd, Los Angeles, CA 90029, USA",bar,,3.8,,3.8,34.0921408,-118.2804081,Santa Monica / Sanborn,47.6,4,https://www.google.com/maps/place/?q=place_id:ChIJlQFcw73HwoARplQy4rm_p8k
ChIJ7bkFtoK4woARu-rbQJAkA20,google,YD Karaoke Studio,"3607 W 6th St, Los Angeles, CA 90020, USA",bar,1,3.8,,3.8,34.0639419,-118.3009421,Normandie / 6th,47.7,206,https://www.google.com/maps/place/?q=place_id:ChIJ7bkFtoK4woARu-rbQJAkA20
ChIJ-ZJQhy25woAR742rJDO_5gE,google,Lobby Bar,"3515 Wilshire Blvd, Los Angeles, CA 90010, USA",bar,,3.8,,3.8,34.0620363,-118.301053,Wilshire / Normandie,66.4,20,https://www.google.com/maps/place/?q=place_id:ChIJ-ZJQhy25woAR742rJDO_5gE
ChIJR4OR2Gm5woARYeNiaa3p4zs,google,Kiss Kiss Bang Bang,"3531 Wilshire Blvd, Los Angeles, CA 90010, USA",bar,,3.8,,3.8,34.0621127,-118.3014593,Wilshire / Normandie,101.4,20,https://www.google.com/maps/place/?q=place_id:ChIJR4OR2Gm5woARYeNiaa3p4zs
ChIJWb-sr4HHwoARcHf-lyj4_tw,google,Da Sarang Karaoke & Bar,"2843 W Olympic Blvd, Los Angeles, CA 90006, USA",bar,,3.8,,3.8,34.0528483,-118.2959615,Olympic / Catalina,103.7,28,https://www.google.com/maps/place/?q=place_id:ChIJWb-sr4HHwoARcHf-lyj4_tw
ChIJm0XrgJ64woAR4VOrMjqQCU0,google,SoopSok Karaoke,"4070 W 3rd St, Los Angeles, CA 90020, USA",bar,2,3.7,,3.7,34.0688231,-118.3025027,3rd / Kingsley,48.1,16,https://www.google.com/maps/place/?q=place_id:ChIJm0XrgJ64woAR4VOrMjqQCU0
ChIJLSLzR7LHwoARyEL6-kFj8ks,google,Fountain LA,"2889 W Olympic Blvd, Los Angeles, CA 90006, USA",bar,,3.7,,3.7,34.0529354,-118.297284,Olympic / Catalina,223.8,28,https://www.google.com/maps/place/?q=place_id:ChIJLSLzR7LHwoARyEL6-kFj8ks
ChIJjRdVDAC7woARpWe0gQltakU,google,Aloha Room Venice,"18 Washington Blvd, Venice, CA 90291, USA",bar,,3.7,,3.7,33.9792157,-118.4661571,Venice / Washington,936.2,33,https://www.google.com/maps/place/?q=place_id:ChIJjRdVDAC7woARpWe0gQltakU
ChIJW54mNDa7woARizBc7jKXSbA,google,The Jazz Café | Cipriani Beverly Hills,"362 N Camden Dr, Beverly Hills, CA 90210, USA",bar,,3.7,,3.7,34.0684521,-118.4035816,Wilshire / Camden,149.3,20,https://www.google.com/maps/place/?q=place_id:ChIJW54mNDa7woARizBc7jKXSbA
ChIJG4HaPwC_woARBGaP1XvuCPc,google,Andys,"9077 Santa Monica Blvd, West Hollywood, CA 90069, USA",bar,,3.7,,3.7,34.0817026,-118.389238,Santa Monica / Doheny,43.6,4,https://www.google.com/maps/place/?q=place_id:ChIJG4HaPwC_woARBGaP1XvuCPc
ChIJu47OTEa_woAR2oQlFTHti-0,google,Florentine Gardens LA,"5951 Hollywood Blvd, Los Angeles, CA 90028, USA",bar,2,3.7,,3.7,34.1018383,-118.3199248,Hollywood / Bronson,154.5,217,https://www.google.com/maps/place/?q=place_id:ChIJu47OTEa_woAR2oQlFTHti-0
ChIJ_ezMpIe4woARt0vNv0jLiNw,google,Dolsan Karaoke Bar,"976 S Western Ave, Los Angeles, CA 90006, USA",bar,,3.6,,3.6,34.0533498,-118.3088574,Olympic / Western,75.8,28,https://www.google.com/maps/place/?q=place_id:ChIJ_ezMpIe4woARt0vNv0jLiNw
ChIJnxVNnHjHwoARPYIvzSlSKDM,google,Industry Standard Bartending Schools,"871 S Vermont Ave, Los Angeles, CA 90005, USA",bar,,3.5,,3.5,34.05608,-118.2921496,Vermont / James M Wood,34.9,204,https://www.google.com/maps/place/?q=place_id:ChIJnxVNnHjHwoARPYIvzSlSKDM
ChIJLXKP_ljHwoARDd6jTMGX-jI,google,DGM Karaoke,"3275 Wilshire Blvd #102, Los Angeles, CA 90010, USA",bar,,3.5,,3.5,34.0619779,-118.2936326,Wilshire / Catalina,147.7,20,https://www.google.com/maps/place/?q=place_id:ChIJLXKP_ljHwoARDd6jTMGX-jI
ChIJPWCYWmfBwoARcqDIJd19wOY,google,Cheetahs,"4600 Hollywood Blvd, Los Angeles, CA 90027, USA",bar,,3.5,,3.5,34.0994589,-118.2894329,Sunset / Virgil,203.0,2,https://www.google.com/maps/place/?q=place_id:ChIJPWCYWmfBwoARcqDIJd19wOY
ChIJTdJSsDC_woARGzZ_C29mPI0,google,Doover,"1439 Ivar Ave, Los Angeles, CA 90028, USA",bar,,3.5,,3.5,34.0969207,-118.3291552,Sunset / Ivar,109.6,2,https://www.google.com/maps/place/?q=place_id:ChIJTdJSsDC_woARGzZ_C29mPI0
ChIJQxp2vqfDwoARqvxGx2ZNynE,google,Tiki B's,"99 E Colorado Blvd, Pasadena, CA 91105, USA",bar,,3.5,,3.5,34.1461012,-118.1483643,Main / Fremont,5643.8,78,https://www.google.com/maps/place/?q=place_id:ChIJQxp2vqfDwoARqvxGx2ZNynE
ChIJPepH5Qi5woARBMRzJUsMVd0,google,K1 Speed Culver City,"3960 Landmark St, Culver City, CA 90232, USA",bar,,3.4,,3.4,34.02738040000001,-118.38646,Venice / Culver City Station,288.2,33,https://www.google.com/maps/place/?q=place_id:ChIJPepH5Qi5woARBMRzJUsMVd0
ChIJLy7Lb_a7woARrxK7_9sLiF4,google,Maison 140 Beverly Hills,"140 S Lasky Dr, Beverly Hills, CA 90212, USA",bar,4,3.4,,3.4,34.06563,-118.40966,Santa Monica / Wilshire,152.9,4,https://www.google.com/maps/place/?q=place_id:ChIJLy7Lb_a7woARrxK7_9sLiF4
ChIJkbC92ju_woARM7DGnJtrdnk,google,Couture Hollywood,"1640 N Cahuenga Blvd, Los Angeles, CA 90028, USA",bar,3,3.4,,3.4,34.1010027,-118.3293176,Hollywood / Cahuenga,68.4,217,https://www.google.com/maps/place/?q=place_id:ChIJkbC92ju_woARM7DGnJtrdnk
ChIJ5XWJRHqzwoARyB5_pLcWe8g,google,Sandbar 66,"900 Manhattan Ave, Manhattan Beach, CA 90266, USA",bar,,3.4,,3.4,33.8830509,-118.4094872,Sepulveda / 8th,1236.2,232,https://www.google.com/maps/place/?q=place_id:ChIJ5XWJRHqzwoARyB5_pLcWe8g
ChIJO3B3T37HwoARneRlD39zRxE,google,Saba Saba,"3188 W 8th St, Los Angeles, CA 90005, USA",bar,,3.3,,3.3,34.057606,-118.2974989,8th / Mariposa,88.4,66,https://www.google.com/maps/place/?q=place_id:ChIJO3B3T37HwoARneRlD39zRxE
ChIJDdolPdCkwoARamTZVzwE1Og,google,Second Street Place,"1428 2nd St #400, Santa Monica, CA 90401, USA",bar,,3.3,,3.3,34.0141819,-118.4964568,Broadway / Ocean,136.9,4,https://www.google.com/maps/place/?q=place_id:ChIJDdolPdCkwoARamTZVzwE1Og
ChIJm7HyIgC7woARDQA0n5gV55I,google,Blitzen's Bar,"10250 Santa Monica Blvd, Los Angeles, CA 90067, USA",bar,,3.3,,3.3,34.05809660000001,-118.4183374,Century Park West / Santa Monica,256.1,28,https://www.google.com/maps/place/?q=place_id:ChIJm7HyIgC7woARDQA0n5gV55I
ChIJh0psoRelwoAR2Rkwo7tLd4I,google,Canary,"1301 5th St, Santa Monica, CA 90401, USA",bar,,3.1,,3.1,34.018513,-118.4955938,4th / Arizona,146.5,720,https://www.google.com/maps/place/?q=place_id:ChIJh0psoRelwoAR2Rkwo7tLd4I
ChIJP31ZcQC9woARkzvnNc_cLJQ,google,Sufiyan's,"Beverly Hills, CA 90210, USA",bar,,3,,3.0,34.0730715,-118.4016265,Santa Monica / Crescent,34.6,4,https://www.google.com/maps/place/?q=place_id:ChIJP31ZcQC9woARkzvnNc_cLJQ
ChIJ5TPtQMnAwoARBNvt3siIl-Y,google,TENANTS OF THE TREES,"2810 Hyperion Ave, Los Angeles, CA 90027, USA",bar,2,2.4,,2.4,34.1083002,-118.2714757,Sunset / Fountain,1792.4,2,https://www.google.com/maps/place/?q=place_id:ChIJ5TPtQMnAwoARBNvt3siIl-Y
ChIJrTGScwy7woARNXDUj4SZM68,google,Cocktail Academy,"2228 Barry Ave, Los Angeles, CA 90064, USA",bar,,1,,1.0,34.0341947,-118.4459364,Nebraska / Sepulveda,1305.0,4,https://www.google.com/maps/place/?q=place_id:ChIJrTGScwy7woARNXDUj4SZM68
ChIJo_P2EQC7woARdcv3Men-thk,google,The Shirazi Family,"224 S Rodeo Dr, Beverly Hills, CA 90212, USA",bar,,1,,1.0,34.0639384,-118.4010647,Wilshire / Rodeo,371.1,20,https://www.google.com/maps/place/?q=place_id:ChIJo_P2EQC7woARdcv3Men-thk
ChIJkWKfcgDHwoARUoSk7SRLPRg,google,Jaguar Bar speakeasy,"2815 Sunset Blvd, Los Angeles, CA 90026, USA",bar,,,,,34.0821271,-118.2719461,Sunset / Silver Lake,167.6,2,https://www.google.com/maps/place/?q=place_id:ChIJkWKfcgDHwoARUoSk7SRLPRg
ChIJtcgdcy25woAR2nyUf-Nb1mI,google,Epic karaoke,"3536 W 8th St, Los Angeles, CA 90005, USA",bar,,,,,34.057246,-118.3072444,8th / Serrano,60.0,66,https://www.google.com/maps/place/?q=place_id:ChIJtcgdcy25woAR2nyUf-Nb1mI
ChIJTSEYD9e-woAR4LyxdM-EBjg,google,Premiere LA Bar Catering & Events,"7325 Santa Monica Blvd, West Hollywood, CA 90046, USA",bar,,,,,34.0908921,-118.3495805,Santa Monica / Fuller,26.7,4,https://www.google.com/maps/place/?q=place_id:ChIJTSEYD9e-woAR4LyxdM-EBjg
ChIJ7yfnKNG_woARZrhLSArcCFA,google,Ritual,"8430 Sunset Blvd, West Hollywood, CA 90069, USA",bar,,,,,34.0946989,-118.3734518,Sunset / Kings,74.6,2,https://www.google.com/maps/place/?q=place_id:ChIJ7yfnKNG_woARZrhLSArcCFA
ChIJfXo2Qr6-woAR3A4tROMP_qc,google,Bryant's Sundeck Bar,"West Hollywood, CA 90069, USA",bar,,,,,34.0951858,-118.3737947,Sunset / Kings,92.7,2,https://www.google.com/maps/place/?q=place_id:ChIJfXo2Qr6-woAR3A4tROMP_qc
ChIJhVFi1dilwoARsYdcyIVGiMU,google,Jazz A Gogo,"395 Santa Monica Pl #300, Santa Monica, CA 90401, USA",bar,,,,,34.0133397,-118.4946372,Broadway / Ocean,168.1,4,https://www.google.com/maps/place/?q=place_id:ChIJhVFi1dilwoARsYdcyIVGiMU
ChIJVVVVVdCkwoARrWg2Q74l2sU,google,Brightsolid Online Pub Inc,"Santa Monica, CA 90401, USA",bar,,,,,34.0126379,-118.495155,Broadway / Ocean,120.0,4,https://www.google.com/maps/place/?q=place_id:ChIJVVVVVdCkwoARrWg2Q74l2sU
ChIJQ6DdOPG7woARmC6RP-Ob7n0,google,The Pool Bar,"2025 Ave of the Stars, Los Angeles, CA 90067, USA",bar,,,,,34.0575366,-118.4157964,Century Park West / Solar,304.5,28,https://www.google.com/maps/place/?q=place_id:ChIJQ6DdOPG7woARmC6RP-Ob7n0
ChIJ8VQM9je7woAR_ioOYy1_Th4,google,Wally’s Century Plaza,"2025 Ave of the Stars, Los Angeles, CA 90067, USA",bar,,,,,34.057828,-118.4156138,Century Park West / Solar,339.8,28,https://www.google.com/maps/place/?q=place_id:ChIJ8VQM9je7woAR_ioOYy1_Th4
ChIJHyp3YPO7woARUFC_IC9Gxz8,google,Sista Otis,"1875 Century Pk E #2060, Los Angeles, CA 90067, USA",bar,,,,,34.0608661,-118.4148284,Century City Terminal,253.9,28,https://www.google.com/maps/place/?q=place_id:ChIJHyp3YPO7woARUFC_IC9Gxz8
ChIJ49L7EtO7woARaOtEltzGETE,google,The Caddy Shack,"10460 W Pico Blvd, Los Angeles, CA 90064, USA",bar,,,,,34.0443105,-118.4134749,Century Park West / Solar,1318.7,28,https://www.google.com/maps/place/?q=place_id:ChIJ49L7EtO7woARaOtEltzGETE
ChIJo2s6BgC7woARnPv-owzuS3s,google,Burger Shot Vespucci,"3011 Strongs Dr, Venice, CA 90291, USA",bar,,,,,33.9800412,-118.4656424,Venice / Washington,838.6,33,https://www.google.com/maps/place/?q=place_id:ChIJo2s6BgC7woARnPv-owzuS3s
ChIJgYuNZ8W_woARiioXPFP2fAo,google,bouban room,"Los Angeles, CA 90038, USA",bar,,,,,34.0928105,-118.3286705,Vine / Lexington,202.0,210,https://www.google.com/maps/place/?q=place_id:ChIJgYuNZ8W_woARiioXPFP2fAo
ChIJ5-3mCgC_woAR3d97I3D5FLA,google,"Wilcox Ave,","Wilcox Ave, Los Angeles, CA 90038, USA",bar,,,,,34.0934519,-118.3310197,Santa Monica / Wilcox,288.2,4,https://www.google.com/maps/place/?q=place_id:ChIJ5-3mCgC_woAR3d97I3D5FLA
ChIJsw-F4mjDwoAR4xz29gUfYe8,google,Lbs,"17 S Raymond Ave, Pasadena, CA 91105, USA",bar,,,,,34.1454377,-118.1490522,Main / Fremont,5566.3,78,https://www.google.com/maps/place/?q=place_id:ChIJsw-F4mjDwoAR4xz29gUfYe8
ChIJMahGEQDDwoARWqTpM3Afmso,google,Urban Pocha Bar,"61 S Fair Oaks Ave Ste 130, Pasadena, CA 91105, USA",bar,,,,,34.1447333,-118.1509425,Main / Fremont,5481.1,78,https://www.google.com/maps/place/?q=place_id:ChIJMahGEQDDwoARWqTpM3Afmso
ChIJ2Z63MsbHwoARayRb371_z-k,google,Blue Hour ApoTEAcary,"755 Wall St, Los Angeles, CA 90014, USA",cafe,,5,,5.0,34.0411671,-118.2501011,8th / Maple,88.7,66,https://www.google.com/maps/place/?q=place_id:ChIJ2Z63MsbHwoARayRb371_z-k
ChIJ8cpbKGDHwoARy_JUy_1xwkI,google,Love Thy Neighbor Coffee Company,"767 Maple Ave, Los Angeles, CA 90014, USA",cafe,,5,,5.0,34.0411317,-118.250995,8th / Maple,40.2,66,https://www.google.com/maps/place/?q=place_id:ChIJ8cpbKGDHwoARy_JUy_1xwkI
ChIJAZNuQ6LHwoARTr_nlRk8czs,google,Sweet10tations,"840 S Santee St #110, Los Angeles, CA 90014, USA",cafe,,5,,5.0,34.0403567,-118.2525709,9th / Maple,99.3,66,https://www.google.com/maps/place/?q=place_id:ChIJAZNuQ6LHwoARTr_nlRk8czs
ChIJowGCPpnHwoARo8sX3-U_XuY,google,TheEspressoScene,"817 S Los Angeles St, Los Angeles, CA 90014, USA",cafe,,5,,5.0,34.0418122,-118.2531288,8th / Main,96.1,66,https://www.google.com/maps/place/?q=place_id:ChIJowGCPpnHwoARo8sX3-U_XuY
ChIJtWpo-UnHwoARzavUecuiCWc,google,AT Center,"1773 Griffith Park Blvd, Los Angeles, CA 90026, USA",cafe,,5,,5.0,34.0953981,-118.2766232,Sunset / Hyperion,471.4,2,https://www.google.com/maps/place/?q=place_id:ChIJtWpo-UnHwoARzavUecuiCWc
ChIJ10u3CwC5woARPjWZLPRS95U,google,TAMALES MEXICANOS ROSI,"634 Normandie Ave, Los Angeles, CA 90005, USA",cafe,,5,,5.0,34.0618994,-118.3003055,Wilshire / Normandie,9.9,720,https://www.google.com/maps/place/?q=place_id:ChIJ10u3CwC5woARPjWZLPRS95U
ChIJvys-9iO_woARiJe2PE8s3rY,google,Couplet Coffee,"7901 Santa Monica Blvd UNIT 107, West Hollywood, CA 90046, USA",cafe,,5,,5.0,34.091004,-118.361679,Santa Monica / Fairfax,12.4,218,https://www.google.com/maps/place/?q=place_id:ChIJvys-9iO_woARiJe2PE8s3rY
ChIJ62_RYvS_woARDG3m7_ri4Fs,google,Two Faced Ceramics Studio + Gallery,"7969 Melrose Ave, West Hollywood, CA 90046, USA",cafe,,5,,5.0,34.0841068,-118.3634107,Fairfax / Melrose,178.2,217,https://www.google.com/maps/place/?q=place_id:ChIJ62_RYvS_woARDG3m7_ri4Fs
ChIJI6uOXAClwoARifvjR-Yn5sY,google,DOL Coffee & Tea,"1231 Wilshire Blvd, Santa Monica, CA 90403, USA",cafe,,5,,5.0,34.0261082,-118.4901229,Wilshire / 14th,150.8,720,https://www.google.com/maps/place/?q=place_id:ChIJI6uOXAClwoARifvjR-Yn5sY
ChIJt1gXTMSlwoARFof3410hchM,google,Santa Monica Cafe,"1447 Ocean Ave, Santa Monica, CA 90401, USA",cafe,,5,,5.0,34.0132024,-118.4965779,Broadway / Ocean,32.3,4,https://www.google.com/maps/place/?q=place_id:ChIJt1gXTMSlwoARFof3410hchM
ChIJzf-NclylwoAR6jyQ2F0G8u0,google,Sonia's Cafe,"Located in the lobby, 1260 15th St, Santa Monica, CA 90404, USA",cafe,,5,,5.0,34.0262096,-118.4866348,Wilshire / 14th,197.4,20,https://www.google.com/maps/place/?q=place_id:ChIJzf-NclylwoAR6jyQ2F0G8u0
ChIJJ7Q7dwDHwoARdwMATNhayAA,google,Nutrición Club Maná,"1/2, W Temple St #2625, Los Angeles, CA 90026, USA",cafe,,5,,5.0,34.0729399,-118.2755704,Beverly / Benton,378.5,14,https://www.google.com/maps/place/?q=place_id:ChIJJ7Q7dwDHwoARdwMATNhayAA
ChIJESgdc5i9woARy1iD7Y2CQIs,google,Driply Coffee Space,"741 Gayley Ave, Los Angeles, CA 90024, USA",cafe,,5,,5.0,34.0645107,-118.4484743,Le Conte / Gayley,115.7,2,https://www.google.com/maps/place/?q=place_id:ChIJESgdc5i9woARy1iD7Y2CQIs
ChIJ-WjfrXW7woARMA5zmmw0Z1o,google,SY Fresh Delights,"10866 Wilshire Blvd #100, Los Angeles, CA 90024, USA",cafe,2,5,,5.0,34.0588444,-118.4421313,Wilshire / Glendon,59.7,20,https://www.google.com/maps/place/?q=place_id:ChIJ-WjfrXW7woARMA5zmmw0Z1o
ChIJodf3TwC7woARgeF0w4o1MTc,google,Westwood Grand Cafe,"1922 Westwood Blvd, West Los Angeles, CA 90025, USA",cafe,,5,,5.0,34.0478473,-118.4349718,Santa Monica / Westwood,252.3,4,https://www.google.com/maps/place/?q=place_id:ChIJodf3TwC7woARgeF0w4o1MTc
ChIJE6Q4sY-7woARuapyvX9TFJM,google,LB Cafe,"11779 W Pico Blvd, Los Angeles, CA 90064, USA",cafe,,5,,5.0,34.0309537,-118.4474916,Santa Monica / Barrington,1644.8,4,https://www.google.com/maps/place/?q=place_id:ChIJE6Q4sY-7woARuapyvX9TFJM
ChIJG03MybG7woARHVzWiT5Wycg,google,The Spacebar Cafe,"11779 W Pico Blvd, Los Angeles, CA 90064, USA",cafe,,5,,5.0,34.0309537,-118.4474916,Santa Monica / Barrington,1644.8,4,https://www.google.com/maps/place/?q=place_id:ChIJG03MybG7woARHVzWiT5Wycg
ChIJY1drsjy7woARhqlkdkYAJoo,google,Westwood Garden Cafe,"Behind Farsi Cafe, 1916 Westwood Blvd, West Los Angeles, CA 90025, USA",cafe,,5,,5.0,34.0479491,-118.4349558,Santa Monica / Westwood,243.0,4,https://www.google.com/maps/place/?q=place_id:ChIJY1drsjy7woARhqlkdkYAJoo
ChIJ6b5JRpG7woARTMS4ZP2FpyA,google,Chaumont Bakery & Café,"11111 Santa Monica Blvd Suite 150, Los Angeles, CA 90024, USA",cafe,,5,,5.0,34.0479095,-118.4447652,Santa Monica / Sepulveda,34.9,4,https://www.google.com/maps/place/?q=place_id:ChIJ6b5JRpG7woARTMS4ZP2FpyA
ChIJ0S7FIwi7woARLwOfLqn1Lpg,google,Tran Cafe,"3032 Wilshire Blvd Suite B3, Santa Monica, CA 90403, USA",cafe,,5,,5.0,34.0394874,-118.4726852,Wilshire / Berkeley,20.3,20,https://www.google.com/maps/place/?q=place_id:ChIJ0S7FIwi7woARLwOfLqn1Lpg
ChIJ1X7M0La7woARgu0rhhI03so,google,Chaumont Bakery & Café,"2121 Ave of the Stars #100, Los Angeles, CA 90067, USA",cafe,,5,,5.0,34.0551939,-118.413266,Olympic / Century Park East,398.4,28,https://www.google.com/maps/place/?q=place_id:ChIJ1X7M0La7woARgu0rhhI03so
ChIJ7ZOYU7i6woAR0xeddGLKS2U,google,Espresso Bar,"97 Windward Ave, Venice, CA 90291, USA",cafe,,5,,5.0,33.9878741,-118.4722491,Main / Venice,136.9,33,https://www.google.com/maps/place/?q=place_id:ChIJ7ZOYU7i6woAR0xeddGLKS2U
ChIJr2Z0ZbO7woAR2MXZ4qIRi3w,google,Caspian Coast Coffee,"1501 Main St UNIT 103, Venice, CA 90291, USA",cafe,,5,,5.0,33.9884582,-118.4715876,Main / Grand,95.5,33,https://www.google.com/maps/place/?q=place_id:ChIJr2Z0ZbO7woAR2MXZ4qIRi3w
ChIJxUFfR_m7woARGo_l4B_aDME,google,Peace Cafe,"Abbot Kinney Blvd, Venice, CA 90291, USA",cafe,,5,,5.0,33.9913724,-118.4694621,Main / Grand,398.7,33,https://www.google.com/maps/place/?q=place_id:ChIJxUFfR_m7woARGo_l4B_aDME
ChIJr4m657-7woARPHP-QKrTz4c,google,Classic Touch Tattoos,"490 Santa Clara Ave, Venice, CA 90291, USA",cafe,,5,,5.0,33.99144709999999,-118.4680335,Venice Bl / Venice Wy,454.3,33,https://www.google.com/maps/place/?q=place_id:ChIJr4m657-7woARPHP-QKrTz4c
ChIJQwBEwLO7woARcNhSSYoyJmM,google,SENNA COFFEE,"Vía Marina &, Panay Way, Marina Del Rey, CA 90292, USA",cafe,,5,,5.0,33.9792073,-118.4587291,Venice / Washington,1068.3,33,https://www.google.com/maps/place/?q=place_id:ChIJQwBEwLO7woARcNhSSYoyJmM
ChIJWzPfEQC9woAR__TBVP8g2TY,google,Espresso Room Cafe,"409 N Canon Dr, Beverly Hills, CA 90210, USA",cafe,,5,,5.0,34.0706643,-118.4013173,Santa Monica / Canon,244.2,4,https://www.google.com/maps/place/?q=place_id:ChIJWzPfEQC9woAR__TBVP8g2TY
ChIJbcXFKLi9woARbeyIbiT9TSA,google,Route 650 Cafe,"400 Foothill Rd, Beverly Hills, CA 90210, USA",cafe,,5,,5.0,34.0754951,-118.3954236,Santa Monica / Beverly,167.8,4,https://www.google.com/maps/place/?q=place_id:ChIJbcXFKLi9woARbeyIbiT9TSA
ChIJ01vUrHS5woARlGP9TR3FNj8,google,bome coffee,"9038 Burton Wy, Beverly Hills, CA 90211, USA",cafe,,5,,5.0,34.071947,-118.3889898,Wilshire / Doheny,534.6,20,https://www.google.com/maps/place/?q=place_id:ChIJ01vUrHS5woARlGP9TR3FNj8
ChIJQUk6Hc_JwoAR46PoRIyPRMM,google,HOUSE COFFEE 502,"6511 Hollywood Blvd, Los Angeles, CA 90028, USA",cafe,,5,,5.0,34.101812,-118.331482,Hollywood / Wilcox,45.9,217,https://www.google.com/maps/place/?q=place_id:ChIJQUk6Hc_JwoAR46PoRIyPRMM
ChIJg_lrLeu_woARMD0qpHaydVU,google,Cold Brew Coffee Crew,"6045 Selma Ave, Los Angeles, CA 90028, USA",cafe,,5,,5.0,34.0997046,-118.3203661,Sunset / Gower,236.8,2,https://www.google.com/maps/place/?q=place_id:ChIJg_lrLeu_woARMD0qpHaydVU
ChIJ83oHQU6_woAReM3XqkNUkX0,google,Element Coffee Roasters,"42 Mills Pl, Pasadena, CA 91105, USA",cafe,,5,,5.0,34.1452133,-118.1510737,Main / Fremont,5534.2,78,https://www.google.com/maps/place/?q=place_id:ChIJ83oHQU6_woAReM3XqkNUkX0
ChIJJcNh3RXDwoAR24v42kPUiVA,google,The Caffeinated Cart,"577 S Arroyo Pkwy, Pasadena, CA 91105, USA",cafe,,5,,5.0,34.1360503,-118.1476219,Main / Fremont,4535.2,78,https://www.google.com/maps/place/?q=place_id:ChIJJcNh3RXDwoAR24v42kPUiVA
ChIJpVP1gDXHwoARvygDh-rVMpE,google,Nevermind Coffee,"620 Main St, Los Angeles, CA 90014, USA",cafe,,4.9,,4.9,34.0443627,-118.2501497,6th / Main,84.4,20,https://www.google.com/maps/place/?q=place_id:ChIJpVP1gDXHwoARvygDh-rVMpE
ChIJvap-dwDHwoARU90uKsVMS7U,google,Whata Peach,"2149 Sunset Blvd, Los Angeles, CA 90026, USA",cafe,2,4.9,,4.9,34.0777311,-118.2649848,Sunset / Alvarado,92.0,2,https://www.google.com/maps/place/?q=place_id:ChIJvap-dwDHwoARU90uKsVMS7U
ChIJCQhMFGDHwoAR5sfUjXUsoWY,google,Izal Caffe,"3160 W 8th St, Los Angeles, CA 90005, USA",cafe,2,4.9,,4.9,34.0574745,-118.2967701,8th / Catalina,147.7,66,https://www.google.com/maps/place/?q=place_id:ChIJCQhMFGDHwoAR5sfUjXUsoWY
ChIJk1eEt42_woARs1N0HQCZ_nU,google,Blackcraft Coffee LA,"457 N Fairfax Ave, Los Angeles, CA 90048, USA",cafe,,4.9,,4.9,34.0798299,-118.3617427,Fairfax / Rosewood,16.5,217,https://www.google.com/maps/place/?q=place_id:ChIJk1eEt42_woARs1N0HQCZ_nU
ChIJC1pfCwDHwoARyHi988XotkI,google,Crafted Bagels and Donuts,"1522 Sunset Blvd, Los Angeles, CA 90026, USA",cafe,,4.9,,4.9,34.0757832,-118.255895,Sunset / Portia,140.2,4,https://www.google.com/maps/place/?q=place_id:ChIJC1pfCwDHwoARyHi988XotkI
ChIJXbntS0GawoARyE7WVfxa80I,google,Image Coffee,"10808 Le Conte Ave, Los Angeles, CA 90024, USA",cafe,,4.9,,4.9,34.0635361,-118.4417704,Le Conte / Hilgard,74.0,2,https://www.google.com/maps/place/?q=place_id:ChIJXbntS0GawoARyE7WVfxa80I
ChIJ09HOrkS7woARYI_F7FCq3bI,google,Meymuni Cafe,"2485 S Sepulveda Blvd, Los Angeles, CA 90064, USA",cafe,,4.9,,4.9,34.0356864,-118.4345128,Nebraska / Sepulveda,1380.4,4,https://www.google.com/maps/place/?q=place_id:ChIJ09HOrkS7woARYI_F7FCq3bI
ChIJsRHhHEq7woAR5xw5pt2lmJE,google,Tea Mug Boba,"1642 Sawtelle Blvd, Los Angeles, CA 90025, USA",cafe,1,4.9,,4.9,34.04617959999999,-118.4479453,Santa Monica / Corinth,140.7,4,https://www.google.com/maps/place/?q=place_id:ChIJsRHhHEq7woAR5xw5pt2lmJE
ChIJ27R6z6-7woARU-B_UHG3nn4,google,Chamberlain Coffee,"1142 Abbot Kinney Blvd, Venice, CA 90291, USA",cafe,,4.9,,4.9,33.9912931,-118.4693224,Main / Grand,394.4,33,https://www.google.com/maps/place/?q=place_id:ChIJ27R6z6-7woARU-B_UHG3nn4
ChIJRcdkGwC9woAREzkLhAwTNwc,google,"Bacio Di Latte | Beverly Hills, LA","452 N Canon Dr, Beverly Hills, CA 90210, USA",cafe,,4.9,,4.9,34.0716418,-118.4016597,Santa Monica / Canon,134.9,4,https://www.google.com/maps/place/?q=place_id:ChIJRcdkGwC9woAREzkLhAwTNwc
ChIJd23ZzHi7woARjG89V_ZT7oM,google,Total Body Nutrition of Beverly Hills,"193 S Beverly Dr, Beverly Hills, CA 90212, USA",cafe,,4.9,,4.9,34.0651988,-118.3993037,Wilshire / Rodeo,322.6,20,https://www.google.com/maps/place/?q=place_id:ChIJd23ZzHi7woARjG89V_ZT7oM
ChIJCcW9LR2_woARgiZ2ilPwQyw,google,Couplet Coffee,"6318 Hollywood Blvd, Los Angeles, CA 90028, USA",cafe,,4.9,,4.9,34.1012274,-118.3272418,Hollywood / Vine,63.2,217,https://www.google.com/maps/place/?q=place_id:ChIJCcW9LR2_woARgiZ2ilPwQyw
ChIJceUIJQDDwoARJZw-GFVzMjs,google,Criterion coffee,"39 N Arroyo Pkwy, Pasadena, CA 91103, USA",cafe,2,4.9,,4.9,34.1466234,-118.1478274,Main / Fremont,5705.1,78,https://www.google.com/maps/place/?q=place_id:ChIJceUIJQDDwoARJZw-GFVzMjs
ChIJGY8DwUrGwoARg54laB-pNlk,google,Garçons de Café,"541 S Spring St UNIT 114, Los Angeles, CA 90013, USA",cafe,2,4.8,,4.8,34.046988,-118.251414,6th / Broadway,74.3,20,https://www.google.com/maps/place/?q=place_id:ChIJGY8DwUrGwoARg54laB-pNlk
ChIJJZ9RUTPGwoARdPl03co9hLo,google,Brilliant Drapery Design,"842 Maple Ave, Los Angeles, CA 90014, USA",cafe,,4.8,,4.8,34.039792,-118.252244,9th / Maple,68.4,66,https://www.google.com/maps/place/?q=place_id:ChIJJZ9RUTPGwoARdPl03co9hLo
ChIJWQqhseDHwoARU1tPRyhmw2c,google,Santee Studios,"743 Santee St #743a, Los Angeles, CA 90014, USA",cafe,,4.8,,4.8,34.0419161,-118.250972,8th / Maple,127.1,66,https://www.google.com/maps/place/?q=place_id:ChIJWQqhseDHwoARU1tPRyhmw2c
ChIJ6ZfIHHfHwoARZ8LppI5aqGk,google,Malaya Coffee - Silverlake,"2839 Sunset Blvd, Los Angeles, CA 90026, USA",cafe,,4.8,,4.8,34.0827229,-118.2723162,Sunset / Silver Lake,101.0,2,https://www.google.com/maps/place/?q=place_id:ChIJ6ZfIHHfHwoARZ8LppI5aqGk
ChIJaTxZO83HwoARVan_Xyji4Tg,google,Loquat Silver Lake,"3300 Sunset Blvd Suite 106, Los Angeles, CA 90026, USA",cafe,,4.8,,4.8,34.0863784,-118.275724,Sunset / Micheltorena,137.0,2,https://www.google.com/maps/place/?q=place_id:ChIJaTxZO83HwoARVan_Xyji4Tg
ChIJRxkWjsm-woARujqPQOuc3dE,google,V Cut Cigar Lounge,"8172 Melrose Ave, Los Angeles, CA 90046, USA",cafe,,4.8,,4.8,34.0835952,-118.3676757,Fairfax / Melrose,560.2,217,https://www.google.com/maps/place/?q=place_id:ChIJRxkWjsm-woARujqPQOuc3dE
ChIJOSGMBRa_woAReV2S9ImoSI8,google,Café Woods,"8275 Santa Monica Blvd, West Hollywood, CA 90046, USA",cafe,,4.8,,4.8,34.0909818,-118.3696846,Santa Monica / Sweetzer,82.4,4,https://www.google.com/maps/place/?q=place_id:ChIJOSGMBRa_woAReV2S9ImoSI8
ChIJC0X6a_m_woARJ9TlD14_7QQ,google,Drinkit Coffee,"8424 Santa Monica Blvd # C, West Hollywood, CA 90069, USA",cafe,,4.8,,4.8,34.0904221,-118.373917,Santa Monica / Kings,104.9,4,https://www.google.com/maps/place/?q=place_id:ChIJC0X6a_m_woARJ9TlD14_7QQ
ChIJLT7KClG_woARhhWnGCrefVE,google,Be Bright Coffee,"7311 Melrose Ave, Los Angeles, CA 90046, USA",cafe,,4.8,,4.8,34.0836766,-118.3492106,La Brea / Melrose,460.6,212,https://www.google.com/maps/place/?q=place_id:ChIJLT7KClG_woARhhWnGCrefVE
ChIJV4CyHKe_woARAQzHpd6r5oA,google,Fika Fika Coffee & Creamery,"7267 Melrose Ave, Los Angeles, CA 90046, USA",cafe,1,4.8,,4.8,34.0836386,-118.3480715,La Brea / Melrose,355.7,212,https://www.google.com/maps/place/?q=place_id:ChIJV4CyHKe_woARAQzHpd6r5oA
ChIJPZfeQNmlwoARHslmVp0n31s,google,Couplet Coffee,"525 Santa Monica Blvd, Santa Monica, CA 90401, USA",cafe,,4.8,,4.8,34.0179671,-118.4936315,6th / Santa Monica,39.8,4,https://www.google.com/maps/place/?q=place_id:ChIJPZfeQNmlwoARHslmVp0n31s
ChIJu3V1MAClwoARod0m3rU1P6k,google,Kavahana,"306 Pico Blvd, Santa Monica, CA 90405, USA",cafe,1,4.8,,4.8,34.0090961,-118.4877715,5th / Colorado,577.5,20,https://www.google.com/maps/place/?q=place_id:ChIJu3V1MAClwoARod0m3rU1P6k
ChIJIT-KMC-6woARiA7LLbQRvOY,google,"The Conservatory for Coffee, Tea & Cocoa","10117 Washington Blvd, Culver City, CA 90232, USA",cafe,1,4.8,,4.8,34.0206238,-118.3994964,Venice / Jasmine,209.6,33,https://www.google.com/maps/place/?q=place_id:ChIJIT-KMC-6woARiA7LLbQRvOY
ChIJDY45eyXGwoAR578ijsiVo1k,google,Milla Chocolates,"9414 Venice Blvd., Culver City, CA 90232, USA",cafe,,4.8,,4.8,34.025075,-118.3951898,Venice / Bagley,53.5,33,https://www.google.com/maps/place/?q=place_id:ChIJDY45eyXGwoAR578ijsiVo1k
ChIJLUaqW_u7woARD9FGRhMnJEc,google,The Little Marionette,"3570 Motor Ave Unit A, Los Angeles, CA 90034, USA",cafe,,4.8,,4.8,34.0252265,-118.407035,Venice / Motor,585.7,33,https://www.google.com/maps/place/?q=place_id:ChIJLUaqW_u7woARD9FGRhMnJEc
ChIJzUOUkr27woARtDOqyVoK6vg,google,Baked Bar LA,"10848 Washington Blvd, Culver City, CA 90232, USA",cafe,2,4.8,,4.8,34.0140422,-118.4081983,Venice / Girard,344.5,33,https://www.google.com/maps/place/?q=place_id:ChIJzUOUkr27woARtDOqyVoK6vg
ChIJD8SKGKbHwoAR257APasnHFg,google,The Chocolate Dispensary,"1605 Grafton St Unit 102-A, Los Angeles, CA 90026, USA",cafe,,4.8,,4.8,34.0808558,-118.2550422,Sunset / Echo Park,487.7,4,https://www.google.com/maps/place/?q=place_id:ChIJD8SKGKbHwoAR257APasnHFg
ChIJx-YmSLC9woARGa_M8BAejdg,google,Upside Down,"10962 Le Conte Ave, Los Angeles, CA 90024, USA",cafe,,4.8,,4.8,34.0634223,-118.4475013,Le Conte / Gayley,41.4,2,https://www.google.com/maps/place/?q=place_id:ChIJx-YmSLC9woARGa_M8BAejdg
ChIJ6Rw9UD67woARJchEWlqsBTw,google,Sidóh Cafe,"11102 W Olympic Blvd, Los Angeles, CA 90064, USA",cafe,,4.8,,4.8,34.03974830000001,-118.438014,Nebraska / Sepulveda,825.4,4,https://www.google.com/maps/place/?q=place_id:ChIJ6Rw9UD67woARJchEWlqsBTw
ChIJ2byf0Qq7woARVE90VJm4PiU,google,Artelice Pâtisserie,"11301 W Olympic Blvd UNIT 123, Los Angeles, CA 90064, USA",cafe,1,4.8,,4.8,34.0381149,-118.4417864,Nebraska / Sepulveda,858.4,4,https://www.google.com/maps/place/?q=place_id:ChIJ2byf0Qq7woARVE90VJm4PiU
ChIJr_ylDUC7woARAIrrRiyRTig,google,Way Home Coffee,"11049 Santa Monica Blvd, Los Angeles, CA 90025, USA",cafe,,4.8,,4.8,34.0483102,-118.4432588,Santa Monica / Sepulveda,61.2,4,https://www.google.com/maps/place/?q=place_id:ChIJr_ylDUC7woARAIrrRiyRTig
ChIJn3L5SIu7woARYTMfkoH4rSY,google,Breakroom Coffee And Food,"10100 Santa Monica Blvd #50, Los Angeles, CA 90067, USA",cafe,,4.8,,4.8,34.061563,-118.4168894,Century City Terminal,63.0,28,https://www.google.com/maps/place/?q=place_id:ChIJn3L5SIu7woARYTMfkoH4rSY
ChIJofmSZtW7woARq2vuvVOUqmQ,google,Kohi by Owa,"1635 Abbot Kinney Blvd, Venice, CA 90291, USA",cafe,1,4.8,,4.8,33.9896171,-118.4630604,Venice / Abbot Kinney,45.9,33,https://www.google.com/maps/place/?q=place_id:ChIJofmSZtW7woARq2vuvVOUqmQ
ChIJOxyCfum7woARvRmY4jLqbDg,google,Ministry of Coffee - Venice,"827 Ocean Front Walk, Venice, CA 90291, USA",cafe,,4.8,,4.8,33.9908028,-118.4769376,Main / Brooks,300.7,33,https://www.google.com/maps/place/?q=place_id:ChIJOxyCfum7woARvRmY4jLqbDg
ChIJnd5NCPi7woARqmSby1jXyvA,google,andSons Chocolatiers,"9548 Brighton Way, Beverly Hills, CA 90210, USA",cafe,3,4.8,,4.8,34.06853540000001,-118.4037522,Wilshire / Camden,164.2,20,https://www.google.com/maps/place/?q=place_id:ChIJnd5NCPi7woARqmSby1jXyvA
ChIJ1ccY7Ba_woARQTBz5LugL8Y,google,Hudson Theatre Coffee Shop,"6541 Santa Monica Blvd, Los Angeles, CA 90038, USA",cafe,,4.8,,4.8,34.0910135,-118.3322411,Santa Monica / Wilcox,110.3,4,https://www.google.com/maps/place/?q=place_id:ChIJ1ccY7Ba_woARQTBz5LugL8Y
ChIJv1nYvti_woARvEzqxf8wT3E,google,Caffe Hub,"6371 Selma Ave, Los Angeles, CA 90028, USA",cafe,2,4.8,,4.8,34.09988,-118.3294008,Hollywood / Cahuenga,181.8,217,https://www.google.com/maps/place/?q=place_id:ChIJv1nYvti_woARvEzqxf8wT3E
ChIJwQ2h9PS_woARqw1Qj9y5HmQ,google,Rise Juice & Coffee Hollywood,"1645 N Cahuenga Blvd, Los Angeles, CA 90028, USA",cafe,,4.8,,4.8,34.1011169,-118.3297983,Hollywood / Cahuenga,40.9,217,https://www.google.com/maps/place/?q=place_id:ChIJwQ2h9PS_woARqw1Qj9y5HmQ
ChIJiScHGbXDwoARynljuoXe_jo,google,Unicorn Coffee,"55 W Green St, Pasadena, CA 91105, USA",cafe,,4.8,,4.8,34.1447792,-118.1516917,Main / Fremont,5485.0,78,https://www.google.com/maps/place/?q=place_id:ChIJiScHGbXDwoARynljuoXe_jo
ChIJ18NTIWTDwoARf2uiM8Nxyu8,google,Ideology Coffee,"132 W Green St Suite 100, Pasadena, CA 91105, USA",cafe,,4.8,,4.8,34.1442165,-118.1531823,Main / Meridian,5420.4,78,https://www.google.com/maps/place/?q=place_id:ChIJ18NTIWTDwoARf2uiM8Nxyu8
ChIJ4YW4gLKzwoARo9Y_HaMS4n4,google,Cake n Bake,"2700 Manhattan Ave, Hermosa Beach, CA 90254, USA",cafe,,4.8,,4.8,33.8733403,-118.4046181,Sepulveda / Artesia,840.4,232,https://www.google.com/maps/place/?q=place_id:ChIJ4YW4gLKzwoARo9Y_HaMS4n4
ChIJg8Zy_zCzwoAR0O9_BKKR4Go,google,Gitana Cafe,"2600 Hermosa Ave, Hermosa Beach, CA 90254, USA",cafe,1,4.8,,4.8,33.8722331,-118.4050843,Pacific Coast Highway / Artesia,887.6,232,https://www.google.com/maps/place/?q=place_id:ChIJg8Zy_zCzwoAR0O9_BKKR4Go
ChIJEQ9M80nGwoARorDim0d6_Oc,google,Tilt Coffee Bar,"334 Main St Unit #1, Los Angeles, CA 90013, USA",cafe,2,4.7,,4.7,34.0480834,-118.2463854,Spring / 3rd,209.1,28,https://www.google.com/maps/place/?q=place_id:ChIJEQ9M80nGwoARorDim0d6_Oc
ChIJL4MXw8zHwoARO-dkWkaWVGc,google,Fruitland Coffetime,"1000 Maple Ave, Los Angeles, CA 90015, USA",cafe,,4.7,,4.7,34.0381614,-118.2540211,9th / Maple,181.7,66,https://www.google.com/maps/place/?q=place_id:ChIJL4MXw8zHwoARO-dkWkaWVGc
ChIJK5t5CDXHwoARYkpSBd-2ZsE,google,Lyric Hyperion Theater & Cafe,"2106 Hyperion Ave, Los Angeles, CA 90027, USA",cafe,1,4.7,,4.7,34.098814,-118.2736858,Sunset / Hyperion,937.2,2,https://www.google.com/maps/place/?q=place_id:ChIJK5t5CDXHwoARYkpSBd-2ZsE
ChIJC-7PYSPHwoARyT299wgfrtE,google,Picnic Coffee Silverlake,"3116 1/2 Sunset Blvd, Los Angeles, CA 90026, USA",cafe,,4.7,,4.7,34.0847569,-118.2748117,Sunset / Descanso,38.7,2,https://www.google.com/maps/place/?q=place_id:ChIJC-7PYSPHwoARyT299wgfrtE
ChIJgzfTo4C5woARrhBNu5zdhEY,google,Cafe Pause LA,"3600 Wilshire Blvd #100C3, Los Angeles, CA 90010, USA",cafe,,4.7,,4.7,34.0614705,-118.3035693,Wilshire / Harvard,55.0,20,https://www.google.com/maps/place/?q=place_id:ChIJgzfTo4C5woARrhBNu5zdhEY
ChIJSeUO3sK_woARtFyuC_zKlQc,google,Tectonic Coffee Company - Australian Owned Cafe and HQ,"1040 N Fairfax Ave, West Hollywood, CA 90046, USA",cafe,,4.7,,4.7,34.0899255,-118.3611356,Fairfax / Santa Monica,83.3,217,https://www.google.com/maps/place/?q=place_id:ChIJSeUO3sK_woARtFyuC_zKlQc
ChIJXU31gIm_woARLTG1_CrfwD0,google,Farm Cup Coffee,"7748 Santa Monica Blvd, West Hollywood, CA 90046, USA",cafe,1,4.7,,4.7,34.0906968,-118.3582541,Santa Monica / Genesee,30.0,4,https://www.google.com/maps/place/?q=place_id:ChIJXU31gIm_woARLTG1_CrfwD0
ChIJId3f79m_woARd4dkbkaAmCA,google,The WOODS WeHo,"8271 Santa Monica Blvd, West Hollywood, CA 90046, USA",cafe,,4.7,,4.7,34.0909077,-118.369541,Santa Monica / Sweetzer,90.3,4,https://www.google.com/maps/place/?q=place_id:ChIJId3f79m_woARd4dkbkaAmCA
ChIJe6f0LJy_woAROIFZAOhYnh4,google,GG Coffee & Matcha,"523 N Fairfax Ave, Los Angeles, CA 90048, USA",cafe,,4.7,,4.7,34.0807166,-118.3617016,Fairfax / Rosewood,47.7,217,https://www.google.com/maps/place/?q=place_id:ChIJe6f0LJy_woAROIFZAOhYnh4
ChIJCarBrPkz3YARWbjJKH9a5wg,google,Open Air,"8302 Melrose Ave, Los Angeles, CA 90069, USA",cafe,,4.7,,4.7,34.0835362,-118.3706575,Santa Monica / Sweetzer,784.8,4,https://www.google.com/maps/place/?q=place_id:ChIJCarBrPkz3YARWbjJKH9a5wg
ChIJLR3AvIu_woARtEyc_4fTEDQ,google,Thunder Road Cafe,"7253 Santa Monica Blvd, West Hollywood, CA 90046, USA",cafe,,4.7,,4.7,34.090871,-118.3480188,Santa Monica / Formosa,134.6,4,https://www.google.com/maps/place/?q=place_id:ChIJLR3AvIu_woARtEyc_4fTEDQ
ChIJnyHtoWG_woAR7MGXH7DhRMo,google,Collar & Foam,"8490 Santa Monica Blvd Ste B, West Hollywood, CA 90069, USA",cafe,,4.7,,4.7,34.0892787,-118.3760618,Santa Monica / La Cienega,6.0,4,https://www.google.com/maps/place/?q=place_id:ChIJnyHtoWG_woAR7MGXH7DhRMo
ChIJ6aAGHpOlwoAR5I5AL0LpoKc,google,Odd One Out Tea Santa Monica,"1260 3rd Street Promenade, Santa Monica, CA 90401, USA",cafe,1,4.7,,4.7,34.0170728,-118.4979994,4th / Arizona,131.0,720,https://www.google.com/maps/place/?q=place_id:ChIJ6aAGHpOlwoAR5I5AL0LpoKc
ChIJ65-gn9O7woAR7gvrU7vj5VQ,google,Zooies,"9815 National Blvd, Los Angeles, CA 90034, USA",cafe,1,4.7,,4.7,34.0316879,-118.4000744,Venice / Bagley,807.0,33,https://www.google.com/maps/place/?q=place_id:ChIJ65-gn9O7woAR7gvrU7vj5VQ
ChIJtUqDWofBwoARSub_9opnWFY,google,MUD coffee,"2611 Hyperion Ave, Los Angeles, CA 90027, USA",cafe,,4.7,,4.7,34.1060161,-118.2728363,Sunset / Fountain,1520.0,2,https://www.google.com/maps/place/?q=place_id:ChIJtUqDWofBwoARSub_9opnWFY
ChIJsVe_TYnBwoAR2RhwImpaVh8,google,Desert's,"2520 Hyperion Ave, Los Angeles, CA 90027, USA",cafe,,4.7,,4.7,34.1048145,-118.2728757,Sunset / Fountain,1423.5,2,https://www.google.com/maps/place/?q=place_id:ChIJsVe_TYnBwoAR2RhwImpaVh8
ChIJjXnTKnPHwoARGvysGFrwlZY,google,Cold Brew Lou,"1146 Logan St, Los Angeles, CA 90026, USA",cafe,,4.7,,4.7,34.07661,-118.25858,Sunset / Echo Park,95.0,4,https://www.google.com/maps/place/?q=place_id:ChIJjXnTKnPHwoARGvysGFrwlZY
ChIJcb56urbHwoARPlns8MWT9Ag,google,DADA COFFEE,"1606 Sunset Blvd, Los Angeles, CA 90026, USA",cafe,,4.7,,4.7,34.0766267,-118.2578244,Sunset / Echo Park,26.6,4,https://www.google.com/maps/place/?q=place_id:ChIJcb56urbHwoARPlns8MWT9Ag
ChIJ4afdj8_HwoARrmaKr-JI7O4,google,Karla's Coffee Cart Catering,"960 Glendale Blvd, Los Angeles, CA 90026, USA",cafe,,4.7,,4.7,34.0749479,-118.2616625,Sunset / Park,314.9,4,https://www.google.com/maps/place/?q=place_id:ChIJ4afdj8_HwoARrmaKr-JI7O4
ChIJb_FxThrHwoAR5vLcOXrnCtc,google,Granada,"1451 Carroll Ave, Los Angeles, CA 90026, USA",cafe,,4.7,,4.7,34.0706695,-118.256243,Sunset / Vin Scully - Dodger Stadium,507.6,4,https://www.google.com/maps/place/?q=place_id:ChIJb_FxThrHwoAR5vLcOXrnCtc
ChIJ1xoN2oi8woARXJ6Ahcp7GS8,google,Bruin Buzz,"Bruin Buzz, 308 Westwood Plaza, Ackerman A-Level, Los Angeles, CA 90095, USA",cafe,,4.7,,4.7,34.070383,-118.444234,Hilgard / Westholme,485.0,2,https://www.google.com/maps/place/?q=place_id:ChIJ1xoN2oi8woARXJ6Ahcp7GS8
ChIJ-e6VdIS8woAR3XTh_DZnaaw,google,Mon Amour Cafe,"927 Broxton Ave, Los Angeles, CA 90024, USA",cafe,,4.7,,4.7,34.0630673,-118.4472121,Le Conte / Broxton,73.4,2,https://www.google.com/maps/place/?q=place_id:ChIJ-e6VdIS8woAR3XTh_DZnaaw
ChIJi-q_YJy7woARSXfqFxWEYDY,google,Centerpiece hookah lounge,"1446 Westwood Blvd, Los Angeles, CA 90025, USA",cafe,,4.7,,4.7,34.0545742,-118.4408844,Wilshire / Westwood,523.1,20,https://www.google.com/maps/place/?q=place_id:ChIJi-q_YJy7woARSXfqFxWEYDY
ChIJzcf8TgC9woARtkTn-ptb4wQ,google,Boondocks Coffee Roasters,"1087 Broxton Ave, Los Angeles, CA 90024, USA",cafe,,4.7,,4.7,34.0609861,-118.4460963,Westwood / Weyburn,199.4,2,https://www.google.com/maps/place/?q=place_id:ChIJzcf8TgC9woARtkTn-ptb4wQ
ChIJ5-4SBQC7woARuxew_ZFPBJI,google,Honesto Café,"2927 S Sepulveda Blvd, Los Angeles, CA 90064, USA",cafe,,4.7,,4.7,34.0281774,-118.4296818,Venice / Sepulveda,2028.3,33,https://www.google.com/maps/place/?q=place_id:ChIJ5-4SBQC7woARuxew_ZFPBJI
ChIJo5gjhpK7woAReWHlZfatYoU,google,Cafe Belen,"11925 Santa Monica Blvd, Los Angeles, CA 90025, USA",cafe,2,4.7,,4.7,34.041944,-118.461147,Santa Monica / Bundy,216.9,4,https://www.google.com/maps/place/?q=place_id:ChIJo5gjhpK7woAReWHlZfatYoU
ChIJcc6eBXe7woARDGcEqICYhe4,google,CatCafe Lounge | Cats + Kittens,"114 Washington Blvd, Venice, CA 90292, USA",cafe,,4.7,,4.7,33.9799195,-118.4650245,Venice / Washington,847.1,33,https://www.google.com/maps/place/?q=place_id:ChIJcc6eBXe7woARDGcEqICYhe4
ChIJFw9tZwC7woARtKqrLr0qc3g,google,Flō Coffee Bar,"805 Hampton Dr, Venice, CA 90291, USA",cafe,,4.7,,4.7,33.9931758,-118.4741272,Main / Brooks,101.4,33,https://www.google.com/maps/place/?q=place_id:ChIJFw9tZwC7woARtKqrLr0qc3g
ChIJr5g6T_i7woARF6pVbwafKGs,google,Splurge,"9595 Wilshire Blvd #150, Beverly Hills, CA 90212, USA",cafe,,4.7,,4.7,34.0673948,-118.4023956,Wilshire / Camden,55.6,20,https://www.google.com/maps/place/?q=place_id:ChIJr5g6T_i7woARF6pVbwafKGs
ChIJ3_Wr1q69woARWRtonK2MGXM,google,Alfred Coffee,"319 N Canon Dr, Beverly Hills, CA 90210, USA",cafe,,4.7,,4.7,34.0697757,-118.4002996,Wilshire / Rodeo,317.1,20,https://www.google.com/maps/place/?q=place_id:ChIJ3_Wr1q69woARWRtonK2MGXM
ChIJQxyiHJ27woAR7-YSkAu69jQ,google,Novikov Coffee Spot,"257 N Canon Dr Suite 101, Beverly Hills, CA 90210, USA",cafe,,4.7,,4.7,34.0686007,-118.3994232,Wilshire / Rodeo,269.1,20,https://www.google.com/maps/place/?q=place_id:ChIJQxyiHJ27woAR7-YSkAu69jQ
ChIJ5WoFJhK_woAR9hGYugy4O-4,google,Liberation Coffee House,"6725 Santa Monica Blvd, Los Angeles, CA 90038, USA",cafe,1,4.7,,4.7,34.0908763,-118.3372639,Santa Monica / Las Palmas,81.8,4,https://www.google.com/maps/place/?q=place_id:ChIJ5WoFJhK_woAR9hGYugy4O-4
ChIJ3QLmePi5woAR9kIx3TyFfqk,google,File Systems of Coffee,"6051 Melrose Ave, Los Angeles, CA 90038, USA",cafe,,4.7,,4.7,34.08365,-118.3322717,Rossmore / Melrose,536.0,210,https://www.google.com/maps/place/?q=place_id:ChIJ3QLmePi5woAR9kIx3TyFfqk
ChIJj0GYjWvDwoARoornilzLMKw,google,Renew Performance Center,"600 E Colorado Blvd Suite 110, Pasadena, CA 91101, USA",cafe,,4.7,,4.7,34.1455348,-118.1379256,Woodward / Garfield,5395.7,78,https://www.google.com/maps/place/?q=place_id:ChIJj0GYjWvDwoARoornilzLMKw
ChIJVY16-MXdwoARLI1DGVP5HsQ,google,Artisanal Goods by CAR,"1009 E Colorado Blvd, Pasadena, CA 91107, USA",cafe,1,4.7,,4.7,34.1460791,-118.1295378,Woodward / Garfield,5384.1,78,https://www.google.com/maps/place/?q=place_id:ChIJVY16-MXdwoARLI1DGVP5HsQ
ChIJ72sCjByzwoARbRa-WGgEHp8,google,Bluestone Lane Manhattan Beach Café,"321 Manhattan Beach Blvd, Manhattan Beach, CA 90266, USA",cafe,2,4.7,,4.7,33.8854891,-118.4091505,Sepulveda / Manhattan Beach,1212.7,232,https://www.google.com/maps/place/?q=place_id:ChIJ72sCjByzwoARbRa-WGgEHp8
ChIJF7vjdMvHwoARuWTFbkRKqqE,google,J's mart café inc,"934 S Los Angeles St, Los Angeles, CA 90015, USA",cafe,2,4.6,,4.6,34.0398969,-118.255005,9th / Main,158.7,66,https://www.google.com/maps/place/?q=place_id:ChIJF7vjdMvHwoARuWTFbkRKqqE
ChIJxRk1R7XHwoARQLzGnK1Ad1U,google,Le Cafe Bonjour,"640 S Hill St s4, Los Angeles, CA 90014, USA",cafe,,4.6,,4.6,34.046106,-118.2535429,Broadway / 7th,87.3,4,https://www.google.com/maps/place/?q=place_id:ChIJxRk1R7XHwoARQLzGnK1Ad1U
ChIJj1zYWs3HwoARxJmRFxR8RQc,google,Cognoscenti Coffee Roasters,"1118 San Julian St, Los Angeles, CA 90015, USA",cafe,1,4.6,,4.6,34.0353098,-118.2534647,San Pedro / 11th,116.8,51,https://www.google.com/maps/place/?q=place_id:ChIJj1zYWs3HwoARxJmRFxR8RQc
ChIJo6yKWcrHwoARWtBb6mByJq8,google,ilcaffè,"855 S Broadway, Los Angeles, CA 90014, USA",cafe,2,4.6,,4.6,34.0428165,-118.2561113,9th / Broadway,54.5,48,https://www.google.com/maps/place/?q=place_id:ChIJo6yKWcrHwoARWtBb6mByJq8
ChIJO52MTTjHwoARk05d3YHFFk4,google,Espresso Hour Coffee,"855 Santee St, Los Angeles, CA 90014, USA",cafe,,4.6,,4.6,34.0403945,-118.2531476,9th / Maple,101.2,66,https://www.google.com/maps/place/?q=place_id:ChIJO52MTTjHwoARk05d3YHFFk4
ChIJkbj_N1nGwoARMc6-bvb6CMI,google,Skid Row Coffee,"116 E 5th St, Los Angeles, CA 90013, USA",cafe,1,4.6,,4.6,34.0462138,-118.2480484,5th / Los Angeles,34.5,16,https://www.google.com/maps/place/?q=place_id:ChIJkbj_N1nGwoARMc6-bvb6CMI
ChIJ-W8yTD_HwoARPXu2GhFX8BU,google,Dayglow,"3206 Sunset Blvd, Los Angeles, CA 90026, USA",cafe,,4.6,,4.6,34.0855885,-118.275135,Sunset / Descanso,56.5,2,https://www.google.com/maps/place/?q=place_id:ChIJ-W8yTD_HwoARPXu2GhFX8BU
ChIJv6phnzjHwoARf76T2hdTC8Y,google,Muddy Paw Coffee Silverlake,"3320 Sunset Blvd, Los Angeles, CA 90026, USA",cafe,2,4.6,,4.6,34.0868792,-118.2757242,Sunset / Micheltorena,83.1,2,https://www.google.com/maps/place/?q=place_id:ChIJv6phnzjHwoARf76T2hdTC8Y
ChIJYZrBBgXHwoARJk3V-0NARss,google,Gong Gan,"2827 Sunset Blvd, Los Angeles, CA 90026, USA",cafe,,4.6,,4.6,34.0823653,-118.2722017,Sunset / Silver Lake,132.4,2,https://www.google.com/maps/place/?q=place_id:ChIJYZrBBgXHwoARJk3V-0NARss
ChIJpZDmsxDHwoAR565ipe8YBcA,google,Andante Coffee Roasters,"2201 Sunset Blvd, Los Angeles, CA 90026, USA",cafe,1,4.6,,4.6,34.0776991,-118.2654124,Sunset / Rosemont,75.4,2,https://www.google.com/maps/place/?q=place_id:ChIJpZDmsxDHwoAR565ipe8YBcA
ChIJw-muhRrHwoARL2grRVP4O9k,google,Supersweet Tattoos and Coffee,"1345-1347, Glendale Blvd, Los Angeles, CA 90026, USA",cafe,,4.6,,4.6,34.0795694,-118.260465,Sunset / Park,193.5,4,https://www.google.com/maps/place/?q=place_id:ChIJw-muhRrHwoARL2grRVP4O9k
ChIJHQibsx_HwoARmAVlSYvEv84,google,Valerie Echo Park,"1665 Echo Park Ave, Los Angeles, CA 90026, USA",cafe,2,4.6,,4.6,34.0833882,-118.254677,Sunset / Echo Park,756.4,4,https://www.google.com/maps/place/?q=place_id:ChIJHQibsx_HwoARmAVlSYvEv84
ChIJXTWlfZ64woARurhL3hnTfLU,google,Spl. Coffee,"4059 W 3rd St, Los Angeles, CA 90020, USA",cafe,1,4.6,,4.6,34.0691504,-118.3022115,3rd / Kingsley,80.0,16,https://www.google.com/maps/place/?q=place_id:ChIJXTWlfZ64woARurhL3hnTfLU
ChIJ83r--rrHwoARPldG2l5DOLE,google,Cafe Mooi,"3500 W 6th St #230, Los Angeles, CA 90020, USA",cafe,1,4.6,,4.6,34.0629809,-118.2986376,Wilshire / Alexandria,147.6,20,https://www.google.com/maps/place/?q=place_id:ChIJ83r--rrHwoARPldG2l5DOLE
ChIJBcnaUsa-woARS8XE_mm_VEc,google,Tasty Donuts and Cafe,"8205 Santa Monica Blvd, West Hollywood, CA 90046, USA",cafe,1,4.6,,4.6,34.0912166,-118.3676785,Santa Monica / La Jolla,41.2,4,https://www.google.com/maps/place/?q=place_id:ChIJBcnaUsa-woARS8XE_mm_VEc
