id,source,name,address,place_type,price_level,user_rating_google,user_rating_yelp,avg_user_rating,latitude,longitude,nearest_metro_station_name,nearest_metro_distance_meters,nearest_metro_route_codes,detail_url
ChIJRV6-TvWzwoARqRp8PEM3eGk,google,Bo Bridges Gallery,"1108 Manhattan Ave, Manhattan Beach, CA 90266, USA",art_gallery,,5,,5.0,33.8843904,-118.4103751,Sepulveda / 8th,1315.5,232,https://www.google.com/maps/place/?q=place_id:ChIJRV6-TvWzwoARqRp8PEM3eGk
LAfme3KRvncM8yt7dYlOtA,yelp,nonfromseoul,"777 S Alameda St, Los Angeles, CA",art_gallery,,,5.0,5.0,34.0337566,-118.24156104018698,Central / 8th,159.9,53,https://www.yelp.com/biz/nonfromseoul-los-angeles?adjust_creative=85PVB_CXUayFuBfpSaKuwQ&utm_campaign=yelp_api_v3&utm_medium=api_v3_business_search&utm_source=85PVB_CXUayFuBfpSaKuwQ
ChIJn7HsQae8woARP07KjYkAhjc,google,FrameStore - Custom Framing Brentwood,"11684 San Vicente Blvd, Los Angeles, CA 90049, USA",art_gallery,,4.9,,4.9,34.0535746,-118.4647066,Wilshire / Barrington,562.9,720,https://www.google.com/maps/place/?q=place_id:ChIJn7HsQae8woARP07KjYkAhjc
ChIJ7cEs7nS7woARdHcVnqEIRvc,google,Giant Robot Store,"2015 Sawtelle Blvd, Los Angeles, CA 90025, USA",art_gallery,,4.6,,4.6,34.040408,-118.443431,Nebraska / Sepulveda,591.8,4,https://www.google.com/maps/place/?q=place_id:ChIJ7cEs7nS7woARdHcVnqEIRvc
2JQoxcEAuN2wBufBh-x_rQ,yelp,Peace Yoga Gallery,"903 S Main St, Los Angeles, CA",art_gallery,1,,4.4,4.4,34.0415734,-118.2552365,Main / 9th,27.4,33,https://www.yelp.com/biz/peace-yoga-gallery-los-angeles?adjust_creative=85PVB_CXUayFuBfpSaKuwQ&utm_campaign=yelp_api_v3&utm_medium=api_v3_business_search&utm_source=85PVB_CXUayFuBfpSaKuwQ
ChIJFYDOd3HDwoAR_DhdrBevWzE,google,Gold Bug,"38 E Holly St, Pasadena, CA 91103, USA",art_gallery,,4.3,,4.3,34.1474013,-118.1496303,Main / Fremont,5781.7,78,https://www.google.com/maps/place/?q=place_id:ChIJFYDOd3HDwoAR_DhdrBevWzE
7rCrYXRFdXA8E12GzJG6Dw,yelp,2220 Arts,"2220 Beverly Blvd, Los Angeles, CA",attraction,,,5.0,5.0,34.067271881941345,-118.27225830405948,Beverly / Park View,166.2,14,https://www.yelp.com/biz/2220-arts-los-angeles?adjust_creative=85PVB_CXUayFuBfpSaKuwQ&utm_campaign=yelp_api_v3&utm_medium=api_v3_business_search&utm_source=85PVB_CXUayFuBfpSaKuwQ
493Tlf_y7vWh4GXuha5zcw,yelp,Katrina Ji,"Los Angeles , CA",attraction,,,5.0,5.0,33.6776210124477,-117.8329125,Downtown Long Beach Station,34528.3,232,https://www.yelp.com/biz/katrina-ji-los-angeles-6?adjust_creative=85PVB_CXUayFuBfpSaKuwQ&utm_campaign=yelp_api_v3&utm_medium=api_v3_business_search&utm_source=85PVB_CXUayFuBfpSaKuwQ
DUebmbHW2DsZ2sGS5wgRJA,yelp,Rock Climb Every Day,"Los Angeles, CA",attraction,,,5.0,5.0,34.05289,-118.26351,6th / Bixel,163.7,20,https://www.yelp.com/biz/rock-climb-every-day-los-angeles-4?adjust_creative=85PVB_CXUayFuBfpSaKuwQ&utm_campaign=yelp_api_v3&utm_medium=api_v3_business_search&utm_source=85PVB_CXUayFuBfpSaKuwQ
6qSgTuP2eX_fJG_v87CQkw,yelp,The Teahouse Company,"Santa Monica, CA",attraction,2,,4.9,4.9,34.1057230577897,-118.223079577246,Broadway / Avenue 22,3591.9,45,https://www.yelp.com/biz/the-teahouse-company-santa-monica?adjust_creative=85PVB_CXUayFuBfpSaKuwQ&utm_campaign=yelp_api_v3&utm_medium=api_v3_business_search&utm_source=85PVB_CXUayFuBfpSaKuwQ
A4szYOkorXZF8ksw-BpWIw,yelp,The Aerial House,"5230 Alhambra Ave, Los Angeles, CA",attraction,,,4.9,4.9,34.0740244349641,-118.171424344182,Valley / Block,99.8,76,https://www.yelp.com/biz/the-aerial-house-los-angeles?adjust_creative=85PVB_CXUayFuBfpSaKuwQ&utm_campaign=yelp_api_v3&utm_medium=api_v3_business_search&utm_source=85PVB_CXUayFuBfpSaKuwQ
YCOEseUKNJmEKmMiwPeDGg,yelp,Cinegrill Theater,"7000 Hollywood Blvd, Los Angeles, CA",attraction,,,4.8,4.8,34.10092834119199,-118.34263044462226,Hollywood / Sycamore,96.7,212,https://www.yelp.com/biz/cinegrill-theater-los-angeles?adjust_creative=85PVB_CXUayFuBfpSaKuwQ&utm_campaign=yelp_api_v3&utm_medium=api_v3_business_search&utm_source=85PVB_CXUayFuBfpSaKuwQ
Awkg2Kh6UGxl3rUMmwuzBA,yelp,Old Town Music Hall,"140 Richmond St, El Segundo, CA",attraction,1,,4.8,4.8,33.9176216125488,-118.41682434082,Pacific Coast Highway / Grand,1912.6,232,https://www.yelp.com/biz/old-town-music-hall-el-segundo?adjust_creative=85PVB_CXUayFuBfpSaKuwQ&utm_campaign=yelp_api_v3&utm_medium=api_v3_business_search&utm_source=85PVB_CXUayFuBfpSaKuwQ
ChIJ3xJKipS6woARMoCU9T5f1NI,google,Beyond Baroque,"681 Venice Blvd., Venice, CA 90291, USA",attraction,,4.7,,4.7,33.9913623,-118.4588369,Venice / Shell,65.2,33,https://www.google.com/maps/place/?q=place_id:ChIJ3xJKipS6woARMoCU9T5f1NI
ChIJvXdlhBvHwoARfS5LNYPCnEQ,google,826LA & The Echo Park Time Travel Mart,"1714 Sunset Blvd, Los Angeles, CA 90026, USA",attraction,,4.6,,4.6,34.0773295,-118.2590327,Sunset / Echo Park,125.5,4,https://www.google.com/maps/place/?q=place_id:ChIJvXdlhBvHwoARfS5LNYPCnEQ
fvbP1KbS2jpLeCyGfR03gw,yelp,Performing Arts Workshops,"624 15th St, Manhattan Beach, CA",attraction,,,4.5,4.5,33.889243,-118.405335,Sepulveda / Manhattan Beach,879.8,232,https://www.yelp.com/biz/performing-arts-workshops-manhattan-beach?adjust_creative=85PVB_CXUayFuBfpSaKuwQ&utm_campaign=yelp_api_v3&utm_medium=api_v3_business_search&utm_source=85PVB_CXUayFuBfpSaKuwQ
ChIJ9WZU-sy-woARnhyvpzXXP18,google,Melrose Trading Post,"7850 Melrose Ave, Los Angeles, CA 90046, USA",attraction,,4.4,,4.4,34.0833982,-118.3594799,Fairfax / Melrose,168.8,217,https://www.google.com/maps/place/?q=place_id:ChIJ9WZU-sy-woARnhyvpzXXP18
_1AGCrWgZzC8fMT5BL5wgQ,yelp,Holmby Park Lawn Bowling Club,"646 Comstock Ave, Los Angeles, CA",attraction,,,4.4,4.4,34.07159,-118.42886,Wilshire / Beverly Glen,495.5,20,https://www.yelp.com/biz/holmby-park-lawn-bowling-club-los-angeles?adjust_creative=85PVB_CXUayFuBfpSaKuwQ&utm_campaign=yelp_api_v3&utm_medium=api_v3_business_search&utm_source=85PVB_CXUayFuBfpSaKuwQ
_UDfZnlFdg_BYnUfTf3Ibg,yelp,Ebisu Life Store,"300 W Main St, Alhambra, CA",attraction,,,4.4,4.4,34.09313077693173,-118.13068121641628,Main / 3rd,22.5,78,https://www.yelp.com/biz/ebisu-life-store-alhambra-2?adjust_creative=85PVB_CXUayFuBfpSaKuwQ&utm_campaign=yelp_api_v3&utm_medium=api_v3_business_search&utm_source=85PVB_CXUayFuBfpSaKuwQ
CiVzNit9ZhCxsWvgXV3oOw,yelp,Jagged Vertical Dance and Fitness,"11655 Santa Monica Blvd, Los Angeles, CA",attraction,,,4.3,4.3,34.0442058220001,-118.455401472085,Santa Monica / Barrington,117.5,4,https://www.yelp.com/biz/jagged-vertical-dance-and-fitness-los-angeles?adjust_creative=85PVB_CXUayFuBfpSaKuwQ&utm_campaign=yelp_api_v3&utm_medium=api_v3_business_search&utm_source=85PVB_CXUayFuBfpSaKuwQ
Kji6g_2za_yAGJAgeD6mgw,yelp,Illusion Magic Lounge,"1418 4th St, Santa Monica, CA",attraction,2,,4.2,4.2,34.0161314,-118.495068,Santa Monica / 4th,67.8,720,https://www.yelp.com/biz/illusion-magic-lounge-santa-monica-5?adjust_creative=85PVB_CXUayFuBfpSaKuwQ&utm_campaign=yelp_api_v3&utm_medium=api_v3_business_search&utm_source=85PVB_CXUayFuBfpSaKuwQ
lnyG01sfue8P7fxjxDtuWQ,yelp,The Teragram Ballroom,"1234 W 7th St, Los Angeles, CA",attraction,2,,4.2,4.2,34.0518639,-118.2670623,7th / Witmer,62.8,51,https://www.yelp.com/biz/the-teragram-ballroom-los-angeles?adjust_creative=85PVB_CXUayFuBfpSaKuwQ&utm_campaign=yelp_api_v3&utm_medium=api_v3_business_search&utm_source=85PVB_CXUayFuBfpSaKuwQ
IgH251R0mWYWWsEaXQzUVQ,yelp,Cirque School,"5640 1/2 Hollywood Blvd, Los Angeles, CA",attraction,,,4.2,4.2,34.10132,-118.31296,Hollywood / Wilton,73.7,217,https://www.yelp.com/biz/cirque-school-los-angeles?adjust_creative=85PVB_CXUayFuBfpSaKuwQ&utm_campaign=yelp_api_v3&utm_medium=api_v3_business_search&utm_source=85PVB_CXUayFuBfpSaKuwQ
qmyTGgpnQNq-bUV1WzUGvQ,yelp,The Magic Castle,"7001 Franklin Ave, Hollywood, CA",attraction,4,,4.1,4.1,34.1045831567891,-118.341795827356,Hollywood / Sycamore,345.3,212,https://www.yelp.com/biz/the-magic-castle-hollywood?adjust_creative=85PVB_CXUayFuBfpSaKuwQ&utm_campaign=yelp_api_v3&utm_medium=api_v3_business_search&utm_source=85PVB_CXUayFuBfpSaKuwQ
s3mcT_VRzW7eNxTuJqeeqA,yelp,The Greek Theatre,"2700 N Vermont Ave, Los Angeles, CA",attraction,3,,4.1,4.1,34.11953646929749,-118.2962906094629,Hollywood / Edgemont,1961.7,206,https://www.yelp.com/biz/the-greek-theatre-los-angeles?adjust_creative=85PVB_CXUayFuBfpSaKuwQ&utm_campaign=yelp_api_v3&utm_medium=api_v3_business_search&utm_source=85PVB_CXUayFuBfpSaKuwQ
vo-ZvA0mVurifEtv9NsTtA,yelp,IPIC Pasadena,"42 Miller Alley, Pasadena, CA",attraction,2,,4.0,4.0,34.14660883553234,-118.15165400222048,Main / Fremont,5688.4,78,https://www.yelp.com/biz/ipic-pasadena-pasadena-2?adjust_creative=85PVB_CXUayFuBfpSaKuwQ&utm_campaign=yelp_api_v3&utm_medium=api_v3_business_search&utm_source=85PVB_CXUayFuBfpSaKuwQ
1R4VSQ8zR9cpCTBMKFNYAQ,yelp,Highland Park Bowl,"5621 N Figueroa St, Los Angeles, CA",attraction,2,,3.9,3.9,34.10940092215764,-118.1935786022258,Huntington / Monterey,2656.6,78,https://www.yelp.com/biz/highland-park-bowl-los-angeles?adjust_creative=85PVB_CXUayFuBfpSaKuwQ&utm_campaign=yelp_api_v3&utm_medium=api_v3_business_search&utm_source=85PVB_CXUayFuBfpSaKuwQ
i_Y-EE1LkKStw9BTUJ0eCA,yelp,Alamo Drafthouse Cinema,"700 W 7th St, Los Angeles, CA",attraction,2,,3.8,3.8,34.048000777648674,-118.25925565677252,8th / Flower,102.3,66,https://www.yelp.com/biz/alamo-drafthouse-cinema-los-angeles?adjust_creative=85PVB_CXUayFuBfpSaKuwQ&utm_campaign=yelp_api_v3&utm_medium=api_v3_business_search&utm_source=85PVB_CXUayFuBfpSaKuwQ
EYm12SPnc78ncgYqs6F4hw,yelp,Saban Theatre,"8440 Wilshire Blvd, Beverly Hills, CA",attraction,3,,3.5,3.5,34.0647114,-118.3749649,Wilshire / Willaman,515.5,20,https://www.yelp.com/biz/saban-theatre-beverly-hills?adjust_creative=85PVB_CXUayFuBfpSaKuwQ&utm_campaign=yelp_api_v3&utm_medium=api_v3_business_search&utm_source=85PVB_CXUayFuBfpSaKuwQ
OcUxaL7TbnbD0DgYhWRq4w,yelp,AMC Santa Monica 7,"1310 3rd St, Santa Monica, CA",attraction,,,3.4,3.4,34.016857,-118.497643,4th / Arizona,131.9,720,https://www.yelp.com/biz/amc-santa-monica-7-santa-monica-2?adjust_creative=85PVB_CXUayFuBfpSaKuwQ&utm_campaign=yelp_api_v3&utm_medium=api_v3_business_search&utm_source=85PVB_CXUayFuBfpSaKuwQ
wKf87agRGdeayWOzQhRYiA,yelp,AMC Century City 15,"10250 Santa Monica Blvd, Los Angeles, CA",attraction,2,,3.4,3.4,34.060464,-118.418674,Santa Monica / Avenue Of The Stars,96.5,4,https://www.yelp.com/biz/amc-century-city-15-los-angeles?adjust_creative=85PVB_CXUayFuBfpSaKuwQ&utm_campaign=yelp_api_v3&utm_medium=api_v3_business_search&utm_source=85PVB_CXUayFuBfpSaKuwQ
aN8nqbsaEh1ubmQWYNXKew,yelp,Dave & Buster's Arcadia - Santa Anita,"400 S Baldwin Ave, Arcadia, CA",attraction,2,,3.0,3.0,34.1358523080586,-118.0494456742604,Valley / Temple City,6107.8,76,https://www.yelp.com/biz/dave-and-busters-arcadia-santa-anita-arcadia-3?adjust_creative=85PVB_CXUayFuBfpSaKuwQ&utm_campaign=yelp_api_v3&utm_medium=api_v3_business_search&utm_source=85PVB_CXUayFuBfpSaKuwQ
KAGqFIOyaWNRi4eb5ftLOg,yelp,AMC South Bay Galleria 16,"1815 Hawthorne Blvd, Redondo Beach, CA",attraction,,,2.6,2.6,33.868102,-118.356318,Redondo Beach Transit Center,84.1,210,https://www.yelp.com/biz/amc-south-bay-galleria-16-redondo-beach-2?adjust_creative=85PVB_CXUayFuBfpSaKuwQ&utm_campaign=yelp_api_v3&utm_medium=api_v3_business_search&utm_source=85PVB_CXUayFuBfpSaKuwQ
jSlIEGVSSyo-ZsM80SwkJg,yelp,AMC Brentwood 14,"2525 Sand Creek Rd, Brentwood, CA",attraction,,,2.5,2.5,37.945746,-121.740478,Foothill / Roxford,499057.0,224,https://www.yelp.com/biz/amc-brentwood-14-brentwood?adjust_creative=85PVB_CXUayFuBfpSaKuwQ&utm_campaign=yelp_api_v3&utm_medium=api_v3_business_search&utm_source=85PVB_CXUayFuBfpSaKuwQ
n8F7HWisiJCMYkZKejLeLA,yelp,80s Rewind Live,"1128 7th St, Santa Monica, CA",attraction,,,1.0,1.0,34.02193,-118.4966,Wilshire / 6th,161.9,20,https://www.yelp.com/biz/80s-rewind-live-santa-monica?adjust_creative=85PVB_CXUayFuBfpSaKuwQ&utm_campaign=yelp_api_v3&utm_medium=api_v3_business_search&utm_source=85PVB_CXUayFuBfpSaKuwQ
78EYuEPlQqqmAqTzwnHZRg,yelp,Ascend Global Entertainment,"9701 Wilshire Blvd, Beverly Hills, CA",attraction,,,0.0,0.0,34.0674258,-118.4066588,Wilshire / Brighton,89.6,20,https://www.yelp.com/biz/ascend-global-entertainment-beverly-hills?adjust_creative=85PVB_CXUayFuBfpSaKuwQ&utm_campaign=yelp_api_v3&utm_medium=api_v3_business_search&utm_source=85PVB_CXUayFuBfpSaKuwQ
lrjs9ul3UfAKENfR5Qzffg,yelp,Monica Orozco,"9757 Olympic Blvd, Beverly Hills, CA",attraction,,,0.0,0.0,34.0598249,-118.40855,Olympic / Spalding,28.8,28,https://www.yelp.com/biz/monica-orozco-beverly-hills-4?adjust_creative=85PVB_CXUayFuBfpSaKuwQ&utm_campaign=yelp_api_v3&utm_medium=api_v3_business_search&utm_source=85PVB_CXUayFuBfpSaKuwQ
ChIJnUhfWoC5woARmFZ-DhZrwVI,google,B Sweet Catering,"3380 S Robertson Blvd, Los Angeles, CA 90034, USA",bakery,,5,,5.0,34.0291293,-118.3908174,Venice / Robertson,86.9,33,https://www.google.com/maps/place/?q=place_id:ChIJnUhfWoC5woARmFZ-DhZrwVI
YOkmcdyFbo3TBsjvKQ2idA,yelp,Panificio Barozzi,"Salizada San Pantalon 86A, Venezia, VE",bakery,1,,5.0,5.0,45.4371493741398,12.3243077106375,Sayre / Eldridge,9858509.0,234,https://www.yelp.com/biz/panificio-barozzi-venezia?adjust_creative=85PVB_CXUayFuBfpSaKuwQ&utm_campaign=yelp_api_v3&utm_medium=api_v3_business_search&utm_source=85PVB_CXUayFuBfpSaKuwQ
H6EijyZTZhWH0ZrE7JwONA,yelp,Dal Nono Colussi,"Calle Lunga de San Barnaba 2867, Venezia, VE",bakery,2,,5.0,5.0,45.4327837,12.3238095,Sayre / Eldridge,9858863.3,234,https://www.yelp.com/biz/dal-nono-colussi-venezia?adjust_creative=85PVB_CXUayFuBfpSaKuwQ&utm_campaign=yelp_api_v3&utm_medium=api_v3_business_search&utm_source=85PVB_CXUayFuBfpSaKuwQ
FXiYI8paFa10yq05Q2m_OA,yelp,I Sapori del Grano,"Via Cappuccini 39A, Pordenone, PN",bakery,,,5.0,5.0,45.9542651,12.65112,Sayre / Eldridge,9829441.1,234,https://www.yelp.com/biz/i-sapori-del-grano-pordenone?adjust_creative=85PVB_CXUayFuBfpSaKuwQ&utm_campaign=yelp_api_v3&utm_medium=api_v3_business_search&utm_source=85PVB_CXUayFuBfpSaKuwQ
bHtOSJh25GNalSaRMY6BpA,yelp,Paris Baguette,"6258 Wilshire Blvd, Los Angeles, CA",bakery,,,5.0,5.0,34.062956,-118.36546,Wilshire / Crescent Heights,56.0,20,https://www.yelp.com/biz/paris-baguette-los-angeles-21?adjust_creative=85PVB_CXUayFuBfpSaKuwQ&utm_campaign=yelp_api_v3&utm_medium=api_v3_business_search&utm_source=85PVB_CXUayFuBfpSaKuwQ
lT0E1Qy8Y2bKHO9hpZ2sgg,yelp,Glendale Gal Pal,"1800 Gardena Ave, Glendale, CA",bakery,,,5.0,5.0,34.1215388,-118.2557503,Sunset / Fountain,3855.0,2,https://www.yelp.com/biz/glendale-gal-pal-glendale?adjust_creative=85PVB_CXUayFuBfpSaKuwQ&utm_campaign=yelp_api_v3&utm_medium=api_v3_business_search&utm_source=85PVB_CXUayFuBfpSaKuwQ
c3CSFnyzqAwewwRRHFCz6A,yelp,Metropolis Bakery And Cafe,"360 N Arroyo Blvd, Pasadena, CA",bakery,,,5.0,5.0,34.1516986,-118.1645325,Main / Hampden Terrace,6307.6,78,https://www.yelp.com/biz/metropolis-bakery-and-cafe-pasadena-7?adjust_creative=85PVB_CXUayFuBfpSaKuwQ&utm_campaign=yelp_api_v3&utm_medium=api_v3_business_search&utm_source=85PVB_CXUayFuBfpSaKuwQ
LUH7ZU0hTbIcXPss4itkng,yelp,Silverback Coffee,"360 N Pacific Coast Hwy, El Segundo, CA",bakery,,,5.0,5.0,33.920487,-118.395193,Pacific Coast Highway / Grand,107.5,232,https://www.yelp.com/biz/silverback-coffee-el-segundo?adjust_creative=85PVB_CXUayFuBfpSaKuwQ&utm_campaign=yelp_api_v3&utm_medium=api_v3_business_search&utm_source=85PVB_CXUayFuBfpSaKuwQ
NgvD25wAG1x6lr7KbnmXAw,yelp,Bakery By The Yard,"312 Rosecrans Ave, Manhattan Beach, CA",bakery,,,5.0,5.0,33.900952051698695,-118.4174447,Sepulveda / Rosecrans,1951.1,232,https://www.yelp.com/biz/bakery-by-the-yard-manhattan-beach?adjust_creative=85PVB_CXUayFuBfpSaKuwQ&utm_campaign=yelp_api_v3&utm_medium=api_v3_business_search&utm_source=85PVB_CXUayFuBfpSaKuwQ
J6ErcNwiOGt5gdercy5dTw,yelp,Garbo,"Via San Mauro 336, Burano, VE",bakery,,,5.0,5.0,45.48622,12.41635,Sayre / Eldridge,9858741.2,234,https://www.yelp.com/biz/garbo-burano?adjust_creative=85PVB_CXUayFuBfpSaKuwQ&utm_campaign=yelp_api_v3&utm_medium=api_v3_business_search&utm_source=85PVB_CXUayFuBfpSaKuwQ
4ZXXss60nGZcyoqtUOkWsg,yelp,Little Flour Bakery,"1824 Fairburn Ave, Los Angeles, CA",bakery,,,5.0,5.0,34.0543241649984,-118.426734097302,Santa Monica / Thayer,165.2,4,https://www.yelp.com/biz/little-flour-bakery-los-angeles-2?adjust_creative=85PVB_CXUayFuBfpSaKuwQ&utm_campaign=yelp_api_v3&utm_medium=api_v3_business_search&utm_source=85PVB_CXUayFuBfpSaKuwQ
Y_ShMbbzBgHE_QdjDgivkQ,yelp,Moist And Creamy,"1800 Ave Of The Stars, Century City, CA",bakery,2,,5.0,5.0,34.0610211,-118.4173256,Santa Monica / Avenue Of The Stars,82.5,4,https://www.yelp.com/biz/moist-and-creamy-century-city?adjust_creative=85PVB_CXUayFuBfpSaKuwQ&utm_campaign=yelp_api_v3&utm_medium=api_v3_business_search&utm_source=85PVB_CXUayFuBfpSaKuwQ
y8qtKv5AfxlCKVhm4FPIAw,yelp,4th St BAKER,"119 Marguerita Ave, Santa Monica, CA",bakery,,,4.9,4.9,34.02535206684347,-118.510842515289,Wilshire / 6th,1434.3,20,https://www.yelp.com/biz/4th-st-baker-santa-monica?adjust_creative=85PVB_CXUayFuBfpSaKuwQ&utm_campaign=yelp_api_v3&utm_medium=api_v3_business_search&utm_source=85PVB_CXUayFuBfpSaKuwQ
fCqIbW3jpIhkbsYRhsWTqg,yelp,Junior Cookies,"2726 Main St, Santa Monica, CA",bakery,,,4.9,4.9,34.00029,-118.4821394,Main / Sunset,829.5,33,https://www.yelp.com/biz/junior-cookies-santa-monica?adjust_creative=85PVB_CXUayFuBfpSaKuwQ&utm_campaign=yelp_api_v3&utm_medium=api_v3_business_search&utm_source=85PVB_CXUayFuBfpSaKuwQ
Rw9YsncokQiPqbHhjT2SVA,yelp,60/40 Venezia,"Dorsoduro 129A, Venezia, VE",bakery,1,,4.9,4.9,45.4301619058407,12.3335623465274,Sayre / Eldridge,9859567.0,234,https://www.yelp.com/biz/60-40-venezia-venezia?adjust_creative=85PVB_CXUayFuBfpSaKuwQ&utm_campaign=yelp_api_v3&utm_medium=api_v3_business_search&utm_source=85PVB_CXUayFuBfpSaKuwQ
gOLp5SxP_Z9zb-dCFRUDYw,yelp,Vanessa's Bakery,"2747 Beverly Blvd, Los Angeles, CA",bakery,1,,4.9,4.9,34.070591,-118.2789926,Beverly / Benton,124.1,14,https://www.yelp.com/biz/vanessas-bakery-los-angeles?adjust_creative=85PVB_CXUayFuBfpSaKuwQ&utm_campaign=yelp_api_v3&utm_medium=api_v3_business_search&utm_source=85PVB_CXUayFuBfpSaKuwQ
-SK6AR-xzd5avjHUaCh9RQ,yelp,Black Forest Bakery,"2000 Hillhurst Ave, Los Angeles, CA",bakery,,,4.9,4.9,34.1080901,-118.2872416,Hollywood / New Hampshire Layover,849.1,217,https://www.yelp.com/biz/black-forest-bakery-los-angeles?adjust_creative=85PVB_CXUayFuBfpSaKuwQ&utm_campaign=yelp_api_v3&utm_medium=api_v3_business_search&utm_source=85PVB_CXUayFuBfpSaKuwQ
dKwpb4o8_mC8IFW_aYqBTg,yelp,Emile’s Pastry & Cafe,"11551 Santa Monica Blvd, Los Angeles, CA",bakery,,,4.9,4.9,34.0451556929321,-118.453482,Santa Monica / Barrington,323.4,4,https://www.yelp.com/biz/emile-s-pastry-and-cafe-los-angeles?adjust_creative=85PVB_CXUayFuBfpSaKuwQ&utm_campaign=yelp_api_v3&utm_medium=api_v3_business_search&utm_source=85PVB_CXUayFuBfpSaKuwQ
xdGmPZMCfz5BWDcMmOW7pg,yelp,Marigold Bakeshop,"8647 W Pico Blvd, Los Angeles, CA",bakery,2,,4.9,4.9,34.054261,-118.380096,Olympic / Robertson,633.4,28,https://www.yelp.com/biz/marigold-bakeshop-los-angeles?adjust_creative=85PVB_CXUayFuBfpSaKuwQ&utm_campaign=yelp_api_v3&utm_medium=api_v3_business_search&utm_source=85PVB_CXUayFuBfpSaKuwQ
6kX-0EQ1pSIjXn_KogvLZg,yelp,YLS  Bakery & Cafe,"247 Main St, El Segundo, CA",bakery,,,4.9,4.9,33.918443916031784,-118.4163359,Pacific Coast Highway / Grand,1861.5,232,https://www.yelp.com/biz/yls-bakery-and-cafe-el-segundo-3?adjust_creative=85PVB_CXUayFuBfpSaKuwQ&utm_campaign=yelp_api_v3&utm_medium=api_v3_business_search&utm_source=85PVB_CXUayFuBfpSaKuwQ
eyezGyxYJSgVsy9R71Ekmg,yelp,Adore Dessert Cafe,"901 N Catalina Ave, Redondo Beach, CA",bakery,,,4.9,4.9,33.850750159749204,-118.39151664334126,Pacific Coast Highway / Irena,250.1,232,https://www.yelp.com/biz/adore-dessert-cafe-redondo-beach?adjust_creative=85PVB_CXUayFuBfpSaKuwQ&utm_campaign=yelp_api_v3&utm_medium=api_v3_business_search&utm_source=85PVB_CXUayFuBfpSaKuwQ
KX842RUUmc0oLw6_IUzBSw,yelp,The Moody Vegan,"5101 W Sunset Blvd, Los Angeles, CA",bakery,2,,4.9,4.9,34.098311665703534,-118.3006697,Sunset / Normandie,30.4,2,https://www.yelp.com/biz/the-moody-vegan-los-angeles?adjust_creative=85PVB_CXUayFuBfpSaKuwQ&utm_campaign=yelp_api_v3&utm_medium=api_v3_business_search&utm_source=85PVB_CXUayFuBfpSaKuwQ
S4mM0WjQwfrwdotXwZ7Yig,yelp,Tru Tea,"396 S Arroyo Pkwy, Pasadena, CA",bakery,,,4.9,4.9,34.13920131313613,-118.1468712,Main / Fremont,4890.8,78,https://www.yelp.com/biz/tru-tea-pasadena?adjust_creative=85PVB_CXUayFuBfpSaKuwQ&utm_campaign=yelp_api_v3&utm_medium=api_v3_business_search&utm_source=85PVB_CXUayFuBfpSaKuwQ
ChIJB3Or0h3HwoARdrvpJZfBKFA,google,Kien Giang Bakery aka KG Bakery,"1471 Echo Park Ave, Los Angeles, CA 90026, USA",bakery,1,4.8,,4.8,34.0797858,-118.2558664,Sunset / Echo Park,346.7,4,https://www.google.com/maps/place/?q=place_id:ChIJB3Or0h3HwoARdrvpJZfBKFA
yW5Kyuklakxq5w0BNCj8fQ,yelp,The Joint Seafood,"600 E 1st St, Los Angeles, CA",bakery,,,4.8,4.8,34.0486416,-118.23678810363153,5th / Towne,774.5,16,https://www.yelp.com/biz/the-joint-seafood-los-angeles-7?adjust_creative=85PVB_CXUayFuBfpSaKuwQ&utm_campaign=yelp_api_v3&utm_medium=api_v3_business_search&utm_source=85PVB_CXUayFuBfpSaKuwQ
JCqYFPC0_7D0eb3DNY6X1w,yelp,H & H Bagels,"1498 W Sunset Blvd, Los Angeles, CA",bakery,,,4.8,4.8,34.07551698228108,-118.25543991681204,Sunset / Portia,92.0,4,https://www.yelp.com/biz/h-and-h-bagels-los-angeles?adjust_creative=85PVB_CXUayFuBfpSaKuwQ&utm_campaign=yelp_api_v3&utm_medium=api_v3_business_search&utm_source=85PVB_CXUayFuBfpSaKuwQ
BGSjGAgzQLprxWLFPmLj0A,yelp,Little French Bakery,"3319 Highland Ave, Manhattan Beach, CA",bakery,,,4.8,4.8,33.898818,-118.417054,Sepulveda / 30th,1934.1,232,https://www.yelp.com/biz/little-french-bakery-manhattan-beach?adjust_creative=85PVB_CXUayFuBfpSaKuwQ&utm_campaign=yelp_api_v3&utm_medium=api_v3_business_search&utm_source=85PVB_CXUayFuBfpSaKuwQ
dQqjn9z9Ild_bgFtdPbixg,yelp,Artelice Patisserie,"11301 W Olympic Blvd, Los Angeles, CA",bakery,2,,4.8,4.8,34.03812721839133,-118.4417861931904,Nebraska / Sepulveda,857.0,4,https://www.yelp.com/biz/artelice-patisserie-los-angeles-2?adjust_creative=85PVB_CXUayFuBfpSaKuwQ&utm_campaign=yelp_api_v3&utm_medium=api_v3_business_search&utm_source=85PVB_CXUayFuBfpSaKuwQ
1YQcN4thcpUqpJhObPpMow,yelp,Rizzo San Leonardo,"Sestiere Cannaregio 1355, Venezia, VE",bakery,1,,4.8,4.8,45.44379,12.32732,Sayre / Eldridge,9858080.2,234,https://www.yelp.com/biz/rizzo-san-leonardo-venezia-3?adjust_creative=85PVB_CXUayFuBfpSaKuwQ&utm_campaign=yelp_api_v3&utm_medium=api_v3_business_search&utm_source=85PVB_CXUayFuBfpSaKuwQ
13y7RmAH803q03HLBbsfDA,yelp,Pasticceria BAR,"Sestiere Cannaregio 3843A, Venezia, VE",bakery,2,,4.8,4.8,45.44126,12.3340099,Sayre / Eldridge,9858626.2,234,https://www.yelp.com/biz/pasticceria-bar-venezia?adjust_creative=85PVB_CXUayFuBfpSaKuwQ&utm_campaign=yelp_api_v3&utm_medium=api_v3_business_search&utm_source=85PVB_CXUayFuBfpSaKuwQ
2S5ea_nqM7RcFLLsM3Wjhw,yelp,Lam Way Baking,"1370 W Sunset Blvd, Los Angeles, CA",bakery,1,,4.8,4.8,34.07319,-118.25163,Sunset / Vin Scully - Dodger Stadium,72.3,4,https://www.yelp.com/biz/lam-way-baking-los-angeles?adjust_creative=85PVB_CXUayFuBfpSaKuwQ&utm_campaign=yelp_api_v3&utm_medium=api_v3_business_search&utm_source=85PVB_CXUayFuBfpSaKuwQ
7Vlp4PBOsWtCORbOO7DdzQ,yelp,Sugarbloom Bakery,"4126 Verdugo Rd, Los Angeles, CA",bakery,,,4.8,4.8,34.12583,-118.23171,Sunset / Maltman,5773.3,2,https://www.yelp.com/biz/sugarbloom-bakery-los-angeles?adjust_creative=85PVB_CXUayFuBfpSaKuwQ&utm_campaign=yelp_api_v3&utm_medium=api_v3_business_search&utm_source=85PVB_CXUayFuBfpSaKuwQ
zuAtE6gNT5dfitDBI5XQ1Q,yelp,Copenhagen Pastry,"11113 Washington Blvd, Culver City, CA",bakery,2,,4.8,4.8,34.00932,-118.41207,Venice / Sepulveda,590.0,33,https://www.yelp.com/biz/copenhagen-pastry-culver-city?adjust_creative=85PVB_CXUayFuBfpSaKuwQ&utm_campaign=yelp_api_v3&utm_medium=api_v3_business_search&utm_source=85PVB_CXUayFuBfpSaKuwQ
xUNgvFlftNBUmU9G2NSWcQ,yelp,Baked Bar,"10846 Washington Blvd, Culver City, CA",bakery,2,,4.8,4.8,34.01428703495435,-118.40798103862303,Venice / Girard,337.6,33,https://www.yelp.com/biz/baked-bar-culver-city?adjust_creative=85PVB_CXUayFuBfpSaKuwQ&utm_campaign=yelp_api_v3&utm_medium=api_v3_business_search&utm_source=85PVB_CXUayFuBfpSaKuwQ
VA4o-uBaBQqGeAIyCG63bA,yelp,Nyletta French Crullers,"8850 Washington Blvd, Culver City, CA",bakery,,,4.8,4.8,34.02691,-118.38838,Venice / Culver City Station,202.7,33,https://www.yelp.com/biz/nyletta-french-crullers-culver-city?adjust_creative=85PVB_CXUayFuBfpSaKuwQ&utm_campaign=yelp_api_v3&utm_medium=api_v3_business_search&utm_source=85PVB_CXUayFuBfpSaKuwQ
Zn37G6fv5l5W2C6YOgXNwQ,yelp,Betty's Buns,"875 Garland Way, Brentwood, CA",bakery,,,4.8,4.8,37.93558,-121.72648,Foothill / Roxford,497414.8,224,https://www.yelp.com/biz/bettys-buns-brentwood-2?adjust_creative=85PVB_CXUayFuBfpSaKuwQ&utm_campaign=yelp_api_v3&utm_medium=api_v3_business_search&utm_source=85PVB_CXUayFuBfpSaKuwQ
7efJA2bIRrBTJkWk3uji3w,yelp,Jennifer pennifer bakes,"10893 W Pico Blvd, Los Angeles, CA",bakery,,,4.8,4.8,34.039955,-118.429448,Santa Monica / Westwood,1266.6,4,https://www.yelp.com/biz/jennifer-pennifer-bakes-los-angeles-2?adjust_creative=85PVB_CXUayFuBfpSaKuwQ&utm_campaign=yelp_api_v3&utm_medium=api_v3_business_search&utm_source=85PVB_CXUayFuBfpSaKuwQ
qz7oQmq36HFXj4tXxk12hw,yelp,Crumbs and Flakes Bakery,"500 North Palm Ave, Alhambra, CA",bakery,2,,4.8,4.8,34.097231,-118.1457772,Main / Cedar,439.6,78,https://www.yelp.com/biz/crumbs-and-flakes-bakery-alhambra?adjust_creative=85PVB_CXUayFuBfpSaKuwQ&utm_campaign=yelp_api_v3&utm_medium=api_v3_business_search&utm_source=85PVB_CXUayFuBfpSaKuwQ
L-bym32UxMpfj1tx2posiA,yelp,Cake N Bake,"2700 Manhattan Ave, Hermosa Beach, CA",bakery,,,4.8,4.8,33.87338,-118.40463,Sepulveda / Artesia,841.6,232,https://www.yelp.com/biz/cake-n-bake-hermosa-beach?adjust_creative=85PVB_CXUayFuBfpSaKuwQ&utm_campaign=yelp_api_v3&utm_medium=api_v3_business_search&utm_source=85PVB_CXUayFuBfpSaKuwQ
_xvl0679bexX_Caw3EkKRg,yelp,Delizie Romane,"488 N Allen Ave, Pasadena, CA",bakery,,,4.8,4.8,34.154544,-118.112959,Woodward / Garfield,6479.7,78,https://www.yelp.com/biz/delizie-romane-pasadena-2?adjust_creative=85PVB_CXUayFuBfpSaKuwQ&utm_campaign=yelp_api_v3&utm_medium=api_v3_business_search&utm_source=85PVB_CXUayFuBfpSaKuwQ
eFSyURx8qNHWpXoV_zCLbg,yelp,Flour Fresh Cream Donut,"833 S Western Ave, Los Angeles, CA",bakery,,,4.8,4.8,34.057289738210116,-118.3092634890533,8th / Western,88.6,66,https://www.yelp.com/biz/flour-fresh-cream-donut-los-angeles?adjust_creative=85PVB_CXUayFuBfpSaKuwQ&utm_campaign=yelp_api_v3&utm_medium=api_v3_business_search&utm_source=85PVB_CXUayFuBfpSaKuwQ
ChIJtQ6SEHHDwoARWidlvjtV9qw,google,The Dog Bakery - Fresh Baked Treats & Dog Birthday Cakes,"36 W Colorado Blvd, Pasadena, CA 91105, USA",bakery,,4.7,,4.7,34.1453825,-118.1512469,Main / Fremont,5552.7,78,https://www.google.com/maps/place/?q=place_id:ChIJtQ6SEHHDwoARWidlvjtV9qw
Emd4ojVtxS1ycfcOAIljCQ,yelp,Loverra Cafe & Patisserie,"12200 Wilshire Blvd, Los Angeles, CA",bakery,,,4.7,4.7,34.043029,-118.46824,Wilshire / Bundy,110.7,20,https://www.yelp.com/biz/loverra-cafe-and-patisserie-los-angeles?adjust_creative=85PVB_CXUayFuBfpSaKuwQ&utm_campaign=yelp_api_v3&utm_medium=api_v3_business_search&utm_source=85PVB_CXUayFuBfpSaKuwQ
rssrx1vOu7kx6qRvLAp8KA,yelp,Out of Thin Air,"938 N Hill St, Los Angeles, CA",bakery,,,4.7,4.7,34.06525,-118.23814,Broadway / Chinatown,105.3,45,https://www.yelp.com/biz/out-of-thin-air-los-angeles?adjust_creative=85PVB_CXUayFuBfpSaKuwQ&utm_campaign=yelp_api_v3&utm_medium=api_v3_business_search&utm_source=85PVB_CXUayFuBfpSaKuwQ
NIQdMk1fJ3hrPwwJEhmX2w,yelp,DeLuscious Cookies & Milk,"829 N Highland Ave, Los Angeles, CA",bakery,3,,4.7,4.7,34.0861633,-118.338878,La Brea / Willoughby,470.5,212,https://www.yelp.com/biz/deluscious-cookies-and-milk-los-angeles?adjust_creative=85PVB_CXUayFuBfpSaKuwQ&utm_campaign=yelp_api_v3&utm_medium=api_v3_business_search&utm_source=85PVB_CXUayFuBfpSaKuwQ
8YzRlbwFJGg2-qwTNsRIYg,yelp,Bread and Butter Bakery,"2645 Main St, Santa Monica, CA",bakery,,,4.7,4.7,34.00172439621968,-118.4829929,Main / Sunset,1002.8,33,https://www.yelp.com/biz/bread-and-butter-bakery-santa-monica?adjust_creative=85PVB_CXUayFuBfpSaKuwQ&utm_campaign=yelp_api_v3&utm_medium=api_v3_business_search&utm_source=85PVB_CXUayFuBfpSaKuwQ
ynwQmAjhJye3CgmPsLOeAw,yelp,House of Bread,"1906 Westwood Blvd, West Los Angeles, CA",bakery,2,,4.7,4.7,34.0481,-118.43516,Santa Monica / Westwood,219.4,4,https://www.yelp.com/biz/house-of-bread-west-los-angeles?adjust_creative=85PVB_CXUayFuBfpSaKuwQ&utm_campaign=yelp_api_v3&utm_medium=api_v3_business_search&utm_source=85PVB_CXUayFuBfpSaKuwQ
p7o0ZPmV2h-XpLnrby1Ubg,yelp,Cookie Good,"2448 Wilshire Blvd, Santa Monica, CA",bakery,2,,4.7,4.7,34.0348393672528,-118.478482961654,Wilshire / 26th,176.6,20,https://www.yelp.com/biz/cookie-good-santa-monica?adjust_creative=85PVB_CXUayFuBfpSaKuwQ&utm_campaign=yelp_api_v3&utm_medium=api_v3_business_search&utm_source=85PVB_CXUayFuBfpSaKuwQ
Tq4fi5GrHA3DgmwtYpDrQg,yelp,Nino & Friends,"Salizada San Lio 5576, Venezia, VE",bakery,,,4.7,4.7,45.4374156693312,12.3384830736852,Sayre / Eldridge,9859178.1,234,https://www.yelp.com/biz/nino-e-friends-venezia?adjust_creative=85PVB_CXUayFuBfpSaKuwQ&utm_campaign=yelp_api_v3&utm_medium=api_v3_business_search&utm_source=85PVB_CXUayFuBfpSaKuwQ
udlaSo43XmuMychontGX3Q,yelp,Des Croissants Paris,"8539 Washington Blvd, Culver City, CA",bakery,,,4.7,4.7,34.03086133608498,-118.380290574708,Venice / Cattaraugus,256.7,33,https://www.yelp.com/biz/des-croissants-paris-culver-city?adjust_creative=85PVB_CXUayFuBfpSaKuwQ&utm_campaign=yelp_api_v3&utm_medium=api_v3_business_search&utm_source=85PVB_CXUayFuBfpSaKuwQ
6kD9qOYObVV5oG-Ae3cP-A,yelp,Bakers Bench,"1021 Alpine St, Los Angeles, CA",bakery,,,4.7,4.7,34.06555073778093,-118.24683383102747,Sunset / Beaudry,203.4,4,https://www.yelp.com/biz/bakers-bench-los-angeles-2?adjust_creative=85PVB_CXUayFuBfpSaKuwQ&utm_campaign=yelp_api_v3&utm_medium=api_v3_business_search&utm_source=85PVB_CXUayFuBfpSaKuwQ
Zh3UoqopOlanhvh-lHK0mA,yelp,Jackie's Family Bakery,"2221 Barry Ave, Los Angeles, CA",bakery,2,,4.7,4.7,34.034108,-118.446671,Nebraska / Sepulveda,1328.6,4,https://www.yelp.com/biz/jackies-family-bakery-los-angeles?adjust_creative=85PVB_CXUayFuBfpSaKuwQ&utm_campaign=yelp_api_v3&utm_medium=api_v3_business_search&utm_source=85PVB_CXUayFuBfpSaKuwQ
RMtEW94zFlCBsEG4dtO5oA,yelp,The Speakeasy Baking,"Brentwood, CA",bakery,,,4.7,4.7,37.935964,-121.707513,Foothill / Roxford,496447.1,224,https://www.yelp.com/biz/the-speakeasy-baking-brentwood-2?adjust_creative=85PVB_CXUayFuBfpSaKuwQ&utm_campaign=yelp_api_v3&utm_medium=api_v3_business_search&utm_source=85PVB_CXUayFuBfpSaKuwQ
-mfhIIzIhzspivHV7nXhLw,yelp,ID-Eclair,"169 W Green St, Pasadena, CA",bakery,2,,4.7,4.7,34.144654,-118.153894,Main / Meridian,5468.3,78,https://www.yelp.com/biz/id-eclair-pasadena-2?adjust_creative=85PVB_CXUayFuBfpSaKuwQ&utm_campaign=yelp_api_v3&utm_medium=api_v3_business_search&utm_source=85PVB_CXUayFuBfpSaKuwQ
Hg3YYJFGFW7eLWzWZXdYTA,yelp,Fugetsu-Do,"315 E 1st St, Los Angeles, CA",bakery,2,,4.7,4.7,34.05028954041613,-118.2403415,Spring / 1st,489.3,28,https://www.yelp.com/biz/fugetsu-do-los-angeles?adjust_creative=85PVB_CXUayFuBfpSaKuwQ&utm_campaign=yelp_api_v3&utm_medium=api_v3_business_search&utm_source=85PVB_CXUayFuBfpSaKuwQ
PicGcUzDCA-O2xFu4PseZw,yelp,Junior Cookies,"8703 Santa Monica Blvd, West Hollywood, CA",bakery,3,,4.7,4.7,34.087557,-118.380498,Santa Monica / Westbourne,45.9,4,https://www.yelp.com/biz/junior-cookies-west-hollywood?adjust_creative=85PVB_CXUayFuBfpSaKuwQ&utm_campaign=yelp_api_v3&utm_medium=api_v3_business_search&utm_source=85PVB_CXUayFuBfpSaKuwQ
ChIJD28uC4S8woARUk1Z5qNqmjk,google,Diddy Riese,"926 Broxton Ave, Los Angeles, CA 90024, USA",bakery,1,4.6,,4.6,34.0630585,-118.446859,Le Conte / Broxton,60.7,2,https://www.google.com/maps/place/?q=place_id:ChIJD28uC4S8woARUk1Z5qNqmjk
ChIJyzpZ63-6woARxDqMPWJ0Pw0,google,Laura's Wholesome Junk Food,"578 Washington Blvd #46, Marina Del Rey, CA 90292, USA",bakery,,4.6,,4.6,33.9835658,-118.4588856,Venice / Abbot Kinney,663.0,33,https://www.google.com/maps/place/?q=place_id:ChIJyzpZ63-6woARxDqMPWJ0Pw0
ylniWyaanPPr_GXH9l-_GA,yelp,Alfalfa,"2309 Main St, Santa Monica, CA",bakery,2,,4.6,4.6,34.004788,-118.486206,5th / Colorado,1076.3,20,https://www.yelp.com/biz/alfalfa-santa-monica?adjust_creative=85PVB_CXUayFuBfpSaKuwQ&utm_campaign=yelp_api_v3&utm_medium=api_v3_business_search&utm_source=85PVB_CXUayFuBfpSaKuwQ
2XQf1Mrj-0R8wDiX5nvx-w,yelp,Reggie's Deli & Cafe,"1910 W Sunset Blvd, Los Angeles, CA",bakery,1,,4.6,4.6,34.0778791587875,-118.261265406746,Sunset / Park,33.9,4,https://www.yelp.com/biz/reggies-deli-and-cafe-los-angeles?adjust_creative=85PVB_CXUayFuBfpSaKuwQ&utm_campaign=yelp_api_v3&utm_medium=api_v3_business_search&utm_source=85PVB_CXUayFuBfpSaKuwQ
nCxloMsbSh6yHmN02EjdQA,yelp,Tommy and Atticus,"1700 Aviation Blvd, Redondo Beach, CA",bakery,2,,4.6,4.6,33.870847,-118.381974,Pacific Coast Highway / 16th,1158.6,232,https://www.yelp.com/biz/tommy-and-atticus-redondo-beach-2?adjust_creative=85PVB_CXUayFuBfpSaKuwQ&utm_campaign=yelp_api_v3&utm_medium=api_v3_business_search&utm_source=85PVB_CXUayFuBfpSaKuwQ
xWPomi26lQog3AGXs3bk0Q,yelp,Domi,"672 S Santa Fe Ave, Los Angeles, CA",bakery,,,4.6,4.6,34.0358081,-118.2299336,Alameda / 6th Layover,810.8,720,https://www.yelp.com/biz/domi-los-angeles?adjust_creative=85PVB_CXUayFuBfpSaKuwQ&utm_campaign=yelp_api_v3&utm_medium=api_v3_business_search&utm_source=85PVB_CXUayFuBfpSaKuwQ
cz664Q7wZZwlq6uBPoE3Qw,yelp,Lilou,"4847 Oakwood Ave, Los Angeles, CA",bakery,,,4.6,4.6,34.077581252691196,-118.3129053,Beverly / Wilton Pl,139.2,14,https://www.yelp.com/biz/lilou-los-angeles?adjust_creative=85PVB_CXUayFuBfpSaKuwQ&utm_campaign=yelp_api_v3&utm_medium=api_v3_business_search&utm_source=85PVB_CXUayFuBfpSaKuwQ
u3Ovxpd957VFHWjYggtSoA,yelp,La Chouquette,"7350 Melrose Ave, Los Angeles, CA",bakery,2,,4.6,4.6,34.0833,-118.34999,La Brea / Melrose,533.8,212,https://www.yelp.com/biz/la-chouquette-los-angeles?adjust_creative=85PVB_CXUayFuBfpSaKuwQ&utm_campaign=yelp_api_v3&utm_medium=api_v3_business_search&utm_source=85PVB_CXUayFuBfpSaKuwQ
Mo--VZlFOFE3oNYkUizNEw,yelp,Petitgrain Boulangerie,"1209 Wilshire Blvd, Santa Monica, CA",bakery,3,,4.6,4.6,34.0256395,-118.49063044594224,Wilshire / 11th,177.6,20,https://www.yelp.com/biz/petitgrain-boulangerie-santa-monica?adjust_creative=85PVB_CXUayFuBfpSaKuwQ&utm_campaign=yelp_api_v3&utm_medium=api_v3_business_search&utm_source=85PVB_CXUayFuBfpSaKuwQ
M-W5rxpmAZESvaFIP-Gt4w,yelp,Sinners & Saints Desserts Venice,"2553 Lincoln Blvd, Venice, CA",bakery,2,,4.6,4.6,33.990995,-118.448619,Venice / Lincoln,476.8,33,https://www.yelp.com/biz/sinners-and-saints-desserts-venice-venice-2?adjust_creative=85PVB_CXUayFuBfpSaKuwQ&utm_campaign=yelp_api_v3&utm_medium=api_v3_business_search&utm_source=85PVB_CXUayFuBfpSaKuwQ
8Bf-ECHyQt3Y-lWCmNZT4w,yelp,Pasticceria Majer,"Via Dorsoduro 3108/D, Venezia, VE",bakery,2,,4.6,4.6,45.4333611,12.3242102,Sayre / Eldridge,9858832.8,234,https://www.yelp.com/biz/pasticceria-majer-venezia?adjust_creative=85PVB_CXUayFuBfpSaKuwQ&utm_campaign=yelp_api_v3&utm_medium=api_v3_business_search&utm_source=85PVB_CXUayFuBfpSaKuwQ
nfqKaBcBsqmIJ2ZFTkD5Lw,yelp,Picnic Coffee,"3116 1/2 Sunset Blvd, Los Angeles, CA",bakery,2,,4.6,4.6,34.08481,-118.27476,Sunset / Descanso,33.4,2,https://www.yelp.com/biz/picnic-coffee-los-angeles-4?adjust_creative=85PVB_CXUayFuBfpSaKuwQ&utm_campaign=yelp_api_v3&utm_medium=api_v3_business_search&utm_source=85PVB_CXUayFuBfpSaKuwQ
h69PYcjzhSpfod3hGfA1Kg,yelp,brown bag cookies,"3450 Wilshire Blvd, Los Angeles, CA",bakery,2,,4.6,4.6,34.06110973853806,-118.2996044268034,Normandie / Wilshire,70.6,206,https://www.yelp.com/biz/brown-bag-cookies-los-angeles?adjust_creative=85PVB_CXUayFuBfpSaKuwQ&utm_campaign=yelp_api_v3&utm_medium=api_v3_business_search&utm_source=85PVB_CXUayFuBfpSaKuwQ
YQrV9Uc4DiQBGX96aIiRJQ,yelp,Roji Bakery,"807 S La Brea Ave, Los Angeles, CA",bakery,1,,4.6,4.6,34.060254,-118.344982,La Brea / 8th,40.2,212,https://www.yelp.com/biz/roji-bakery-los-angeles-4?adjust_creative=85PVB_CXUayFuBfpSaKuwQ&utm_campaign=yelp_api_v3&utm_medium=api_v3_business_search&utm_source=85PVB_CXUayFuBfpSaKuwQ
IfEk9SnOFNnJFkPa5Dwepw,yelp,Drip and Dolce,"8807 Santa Monica Blvd, West Hollywood, CA",bakery,,,4.6,4.6,34.085881,-118.383246,Santa Monica / Santa Monica,61.2,4,https://www.yelp.com/biz/drip-and-dolce-west-hollywood?adjust_creative=85PVB_CXUayFuBfpSaKuwQ&utm_campaign=yelp_api_v3&utm_medium=api_v3_business_search&utm_source=85PVB_CXUayFuBfpSaKuwQ
aQO5uelmnzuSQxddvdWlug,yelp,Bellas Bread and Butter,"7212 Melrose Ave, Los Angeles, CA",bakery,,,4.6,4.6,34.08326,-118.346707,La Brea / Melrose,234.1,212,https://www.yelp.com/biz/bellas-bread-and-butter-los-angeles?adjust_creative=85PVB_CXUayFuBfpSaKuwQ&utm_campaign=yelp_api_v3&utm_medium=api_v3_business_search&utm_source=85PVB_CXUayFuBfpSaKuwQ
oP8nKBt-b9XdvI47118tdw,yelp,Zooies,"9815 National Blvd, Los Angeles, CA",bakery,2,,4.6,4.6,34.03169,-118.40011,Venice / Bagley,809.1,33,https://www.yelp.com/biz/zooies-los-angeles?adjust_creative=85PVB_CXUayFuBfpSaKuwQ&utm_campaign=yelp_api_v3&utm_medium=api_v3_business_search&utm_source=85PVB_CXUayFuBfpSaKuwQ
ZVy2gPwX8cdnNk2sPdx9VQ,yelp,K & K Donuts,"2101 W Sunset Blvd, Los Angeles, CA",bakery,1,,4.6,4.6,34.07782,-118.26374,Sunset / Alvarado,28.9,2,https://www.yelp.com/biz/k-and-k-donuts-los-angeles?adjust_creative=85PVB_CXUayFuBfpSaKuwQ&utm_campaign=yelp_api_v3&utm_medium=api_v3_business_search&utm_source=85PVB_CXUayFuBfpSaKuwQ
BIrM17k1ApiS-IR1HTTNjw,yelp,Kirari West Bake Shop,"707 N Pacific Coast Hwy, Redondo Beach, CA",bakery,2,,4.6,4.6,33.8530065,-118.3898884,Pacific Coast Highway / Irena,63.8,232,https://www.yelp.com/biz/kirari-west-bake-shop-redondo-beach?adjust_creative=85PVB_CXUayFuBfpSaKuwQ&utm_campaign=yelp_api_v3&utm_medium=api_v3_business_search&utm_source=85PVB_CXUayFuBfpSaKuwQ
JgOQY9aCF6iQ0fo2rbmNBA,yelp,Southwest Bread,"357 Main St, El Segundo, CA",bakery,,,4.6,4.6,33.92067,-118.41626,Pacific Coast Highway / Grand,1860.2,232,https://www.yelp.com/biz/southwest-bread-el-segundo?adjust_creative=85PVB_CXUayFuBfpSaKuwQ&utm_campaign=yelp_api_v3&utm_medium=api_v3_business_search&utm_source=85PVB_CXUayFuBfpSaKuwQ
jOwRw5ooRYJcC2xKIcy1EQ,yelp,Cake Garden Bakery & Deli,"4501 Artesia Blvd, Lawndale, CA",bakery,,,4.6,4.6,33.87326769618947,-118.3551321,Hawthorne / Artesia,238.1,210,https://www.yelp.com/biz/cake-garden-bakery-and-deli-lawndale?adjust_creative=85PVB_CXUayFuBfpSaKuwQ&utm_campaign=yelp_api_v3&utm_medium=api_v3_business_search&utm_source=85PVB_CXUayFuBfpSaKuwQ
XSAKIph_-Lza2LrhWbTOVQ,yelp,Cadoro Bakery,"504 N Oak St, Inglewood, CA",bakery,2,,4.6,4.6,33.9679938,-118.3621271,La Brea / Hyde Park,547.0,212,https://www.yelp.com/biz/cadoro-bakery-inglewood-2?adjust_creative=85PVB_CXUayFuBfpSaKuwQ&utm_campaign=yelp_api_v3&utm_medium=api_v3_business_search&utm_source=85PVB_CXUayFuBfpSaKuwQ
NfoR4YmiDGfgvE3JVdQNsw,yelp,Donut Princess LA,"Santa Monica, CA",bakery,2,,4.6,4.6,34.026563949798394,-118.47374081638694,Santa Monica / 20th,650.2,4,https://www.yelp.com/biz/donut-princess-la-santa-monica-5?adjust_creative=85PVB_CXUayFuBfpSaKuwQ&utm_campaign=yelp_api_v3&utm_medium=api_v3_business_search&utm_source=85PVB_CXUayFuBfpSaKuwQ
OjmWqLk7-_RuM4anOGidhA,yelp,Uncle Tetsu,"2130 Sawtelle Blvd, Los Angeles, CA",bakery,,,4.6,4.6,34.039083856021186,-118.4414552,Nebraska / Sepulveda,758.6,4,https://www.yelp.com/biz/uncle-tetsu-los-angeles-3?adjust_creative=85PVB_CXUayFuBfpSaKuwQ&utm_campaign=yelp_api_v3&utm_medium=api_v3_business_search&utm_source=85PVB_CXUayFuBfpSaKuwQ
glXIt-AgwYs7IXETPJfeug,yelp,Ludivine Paris,"10509 W Pico Blvd, Los Angeles, CA",bakery,2,,4.5,4.5,34.0452069,-118.4194284,Century Park West / Solar,1156.3,28,https://www.yelp.com/biz/ludivine-paris-los-angeles-2?adjust_creative=85PVB_CXUayFuBfpSaKuwQ&utm_campaign=yelp_api_v3&utm_medium=api_v3_business_search&utm_source=85PVB_CXUayFuBfpSaKuwQ
UqUo2GS2FRJNyr1wkX1I1A,yelp,Wa Iro,"38 S Raymond Ave, Pasadena, CA",bakery,,,4.5,4.5,34.145107,-118.148732,Main / Fremont,5531.3,78,https://www.yelp.com/biz/wa-iro-pasadena?adjust_creative=85PVB_CXUayFuBfpSaKuwQ&utm_campaign=yelp_api_v3&utm_medium=api_v3_business_search&utm_source=85PVB_CXUayFuBfpSaKuwQ
lFX_niqiWWgzm6CnqWjlPw,yelp,Cafe Knotted Arts District,"736 E 3rd St, Los Angeles, CA",bakery,,,4.5,4.5,34.04557,-118.23678,5th / Central,502.5,16,https://www.yelp.com/biz/cafe-knotted-arts-district-los-angeles-3?adjust_creative=85PVB_CXUayFuBfpSaKuwQ&utm_campaign=yelp_api_v3&utm_medium=api_v3_business_search&utm_source=85PVB_CXUayFuBfpSaKuwQ
ZJO9x_PWfLeTGwKXB6hFzA,yelp,Okayama Kobo Bakery & Cafe,"328 E 1st St, Los Angeles, CA",bakery,1,,4.5,4.5,34.04973707315797,-118.2401650740425,Spring / 1st,538.8,28,https://www.yelp.com/biz/okayama-kobo-bakery-and-cafe-los-angeles-2?adjust_creative=85PVB_CXUayFuBfpSaKuwQ&utm_campaign=yelp_api_v3&utm_medium=api_v3_business_search&utm_source=85PVB_CXUayFuBfpSaKuwQ
NCHGU65dRUDuXFd6tFu-VA,yelp,Kettle Glazed Doughnuts,"6211 Franklin Ave, Hollywood, CA",bakery,1,,4.5,4.5,34.105577,-118.324631,Hollywood / Argyle,456.8,217,https://www.yelp.com/biz/kettle-glazed-doughnuts-hollywood?adjust_creative=85PVB_CXUayFuBfpSaKuwQ&utm_campaign=yelp_api_v3&utm_medium=api_v3_business_search&utm_source=85PVB_CXUayFuBfpSaKuwQ
qjgmn0KVwBwm8rvynEQsVQ,yelp,Sidecar Doughnuts & Coffee,"631 Wilshire Blvd, Santa Monica, CA",bakery,2,,4.5,4.5,34.02167716254984,-118.49595978465582,Wilshire / 6th,139.9,20,https://www.yelp.com/biz/sidecar-doughnuts-and-coffee-santa-monica-3?adjust_creative=85PVB_CXUayFuBfpSaKuwQ&utm_campaign=yelp_api_v3&utm_medium=api_v3_business_search&utm_source=85PVB_CXUayFuBfpSaKuwQ
EJVSF4Bn9IhXZQ2a9u5xuQ,yelp,Paderia Bakehouse,"3032 Wilshire Blvd, Santa Monica, CA",bakery,2,,4.5,4.5,34.03948,-118.472658,Wilshire / Berkeley,23.0,20,https://www.yelp.com/biz/paderia-bakehouse-santa-monica?adjust_creative=85PVB_CXUayFuBfpSaKuwQ&utm_campaign=yelp_api_v3&utm_medium=api_v3_business_search&utm_source=85PVB_CXUayFuBfpSaKuwQ
zdF7sqLdvyfmMxXFkRYmIA,yelp,Tartine,"2903 Lincoln Blvd, Santa Monica, CA",bakery,,,4.5,4.5,34.004942781953865,-118.4731979,Main / Sunset,1182.5,33,https://www.yelp.com/biz/tartine-santa-monica-7?adjust_creative=85PVB_CXUayFuBfpSaKuwQ&utm_campaign=yelp_api_v3&utm_medium=api_v3_business_search&utm_source=85PVB_CXUayFuBfpSaKuwQ
Jk9W07AegxBZE3l_WmrrgA,yelp,Chaumont,"11111 Santa Monica Blvd, Los Angeles, CA",bakery,,,4.5,4.5,34.04776514675673,-118.444846,Santa Monica / Sepulveda,17.4,4,https://www.yelp.com/biz/chaumont-los-angeles?adjust_creative=85PVB_CXUayFuBfpSaKuwQ&utm_campaign=yelp_api_v3&utm_medium=api_v3_business_search&utm_source=85PVB_CXUayFuBfpSaKuwQ
dIMiVY953o26ahF_oQ0f5Q,yelp,C. Coffee Lovers,"Viale Galileo Galilei 30/1, Venezia, VE",bakery,,,4.5,4.5,45.5043258736269,12.3397838696837,Sayre / Eldridge,9853438.0,234,https://www.yelp.com/biz/c-coffee-lovers-venezia?adjust_creative=85PVB_CXUayFuBfpSaKuwQ&utm_campaign=yelp_api_v3&utm_medium=api_v3_business_search&utm_source=85PVB_CXUayFuBfpSaKuwQ
yMMbiM_G-XEWr0ZKStOqFQ,yelp,Bucintoro,"San Polo 2229, Venezia, VE",bakery,,,4.5,4.5,45.43878,12.329263,Sayre / Eldridge,9858609.6,234,https://www.yelp.com/biz/bucintoro-venezia?adjust_creative=85PVB_CXUayFuBfpSaKuwQ&utm_campaign=yelp_api_v3&utm_medium=api_v3_business_search&utm_source=85PVB_CXUayFuBfpSaKuwQ
odTHl8mobHyv9AN4PMV_ZA,yelp,Vecchiato Gianfranco ,"Piazza dei Frutti, 26, Padova, PD",bakery,,,4.5,4.5,45.4079,11.87516,Sayre / Eldridge,9839026.4,234,https://www.yelp.com/biz/vecchiato-gianfranco-padova?adjust_creative=85PVB_CXUayFuBfpSaKuwQ&utm_campaign=yelp_api_v3&utm_medium=api_v3_business_search&utm_source=85PVB_CXUayFuBfpSaKuwQ
pdOUQItoKoKKelvcUvWcsA,yelp,Kien Giang Bakery,"1471 Echo Park Ave, Los Angeles, CA",bakery,1,,4.5,4.5,34.0797500610352,-118.255867004395,Sunset / Echo Park,343.3,4,https://www.yelp.com/biz/kien-giang-bakery-los-angeles?adjust_creative=85PVB_CXUayFuBfpSaKuwQ&utm_campaign=yelp_api_v3&utm_medium=api_v3_business_search&utm_source=85PVB_CXUayFuBfpSaKuwQ
8YJiPiz7JBy_ynIO-F3u7A,yelp,Taron Bakery,"4950 Hollywood Blvd, Los Angeles, CA",bakery,1,,4.5,4.5,34.1015,-118.29743,Hollywood / Edgemont,107.6,206,https://www.yelp.com/biz/taron-bakery-los-angeles?adjust_creative=85PVB_CXUayFuBfpSaKuwQ&utm_campaign=yelp_api_v3&utm_medium=api_v3_business_search&utm_source=85PVB_CXUayFuBfpSaKuwQ
yt89Nv25V6h-VmPEsdaEGg,yelp,Angel Maid Bakery,"4542 S Centinela Ave, Los Angeles, CA",bakery,2,,4.5,4.5,33.99237,-118.42219,Venice / Grand View,1608.5,33,https://www.yelp.com/biz/angel-maid-bakery-los-angeles?adjust_creative=85PVB_CXUayFuBfpSaKuwQ&utm_campaign=yelp_api_v3&utm_medium=api_v3_business_search&utm_source=85PVB_CXUayFuBfpSaKuwQ
2A18f5TRpM9fBL29byLiAA,yelp,Porto's Bakery & Cafe,"315 N Brand Blvd, Glendale, CA",bakery,1,,4.5,4.5,34.15047,-118.25547,Hollywood / New Hampshire Layover,6393.7,217,https://www.yelp.com/biz/portos-bakery-and-cafe-glendale?adjust_creative=85PVB_CXUayFuBfpSaKuwQ&utm_campaign=yelp_api_v3&utm_medium=api_v3_business_search&utm_source=85PVB_CXUayFuBfpSaKuwQ
wT84Q9NEOUAmOOhydVsITw,yelp,Westside Donuts & Croissants,"11277 Santa Monica Blvd, Los Angeles, CA",bakery,1,,4.5,4.5,34.0465949,-118.4485534,Santa Monica / Corinth,87.8,4,https://www.yelp.com/biz/westside-donuts-and-croissants-los-angeles?adjust_creative=85PVB_CXUayFuBfpSaKuwQ&utm_campaign=yelp_api_v3&utm_medium=api_v3_business_search&utm_source=85PVB_CXUayFuBfpSaKuwQ
eX7bCrpri16hq3QA2fCAzA,yelp,Pops Bagels,"447 N Beverly Dr, Beverly Hills, CA",bakery,2,,4.5,4.5,34.07074,-118.403007,Santa Monica / Canon,213.3,4,https://www.yelp.com/biz/pops-bagels-beverly-hills?adjust_creative=85PVB_CXUayFuBfpSaKuwQ&utm_campaign=yelp_api_v3&utm_medium=api_v3_business_search&utm_source=85PVB_CXUayFuBfpSaKuwQ
meDMtN9t5A9QvdTb5b6nqQ,yelp,Pompadour - Beverly Hills,"9466 Charleville Blvd, Beverly Hills, CA",bakery,2,,4.5,4.5,34.064883,-118.399557,Wilshire / Rodeo,332.9,20,https://www.yelp.com/biz/pompadour-beverly-hills-beverly-hills-2?adjust_creative=85PVB_CXUayFuBfpSaKuwQ&utm_campaign=yelp_api_v3&utm_medium=api_v3_business_search&utm_source=85PVB_CXUayFuBfpSaKuwQ
oLR5wEbDQvQrU2QoycYseA,yelp,Chaumont Vegan,"145 S Beverly Dr, Beverly Hills, CA",bakery,2,,4.5,4.5,34.06613,-118.39943,Wilshire / Rodeo,251.1,20,https://www.yelp.com/biz/chaumont-vegan-beverly-hills?adjust_creative=85PVB_CXUayFuBfpSaKuwQ&utm_campaign=yelp_api_v3&utm_medium=api_v3_business_search&utm_source=85PVB_CXUayFuBfpSaKuwQ
tTX5o38n6ZH0FxyOyALAyA,yelp,Bibi's Bakery & Cafe,"8928 W Pico Blvd, Los Angeles, CA",bakery,1,,4.5,4.5,34.055044,-118.386715,Olympic / La Peer,469.8,28,https://www.yelp.com/biz/bibis-bakery-and-cafe-los-angeles-6?adjust_creative=85PVB_CXUayFuBfpSaKuwQ&utm_campaign=yelp_api_v3&utm_medium=api_v3_business_search&utm_source=85PVB_CXUayFuBfpSaKuwQ
ahCjXQa6SfIe2xgxCfuIrA,yelp,Yellow Jersey,"133 Hermosa Ave, Hermosa Beach, CA",bakery,,,4.5,4.5,33.85467789794135,-118.39836438369127,Pacific Coast Highway / Herondo,753.8,232,https://www.yelp.com/biz/yellow-jersey-hermosa-beach?adjust_creative=85PVB_CXUayFuBfpSaKuwQ&utm_campaign=yelp_api_v3&utm_medium=api_v3_business_search&utm_source=85PVB_CXUayFuBfpSaKuwQ
a3dwyRfKxEN8jqVJ0TLupw,yelp,The Old Sasoon Bakery,"1132 N Allen Ave, Pasadena, CA",bakery,1,,4.5,4.5,34.165606743969896,-118.11291066792128,Woodward / Garfield,7685.7,78,https://www.yelp.com/biz/the-old-sasoon-bakery-pasadena?adjust_creative=85PVB_CXUayFuBfpSaKuwQ&utm_campaign=yelp_api_v3&utm_medium=api_v3_business_search&utm_source=85PVB_CXUayFuBfpSaKuwQ
fYrnfeW_O7FS1Sli59HgGw,yelp,Porto's Bakery & Cafe,"3614 W Magnolia Blvd, Burbank, CA",bakery,1,,4.5,4.5,34.167747,-118.346585,Lankershim / Vineland,2435.3,224,https://www.yelp.com/biz/portos-bakery-and-cafe-burbank?adjust_creative=85PVB_CXUayFuBfpSaKuwQ&utm_campaign=yelp_api_v3&utm_medium=api_v3_business_search&utm_source=85PVB_CXUayFuBfpSaKuwQ
105mFbITlfMAlcnjmPuM_w,yelp,Michelle's Donuts,"4862 Santa Monica Blvd, Los Angeles, CA",bakery,1,,4.5,4.5,34.09059,-118.29572,Santa Monica / Edgemont,48.8,4,https://www.yelp.com/biz/michelles-donuts-los-angeles?adjust_creative=85PVB_CXUayFuBfpSaKuwQ&utm_campaign=yelp_api_v3&utm_medium=api_v3_business_search&utm_source=85PVB_CXUayFuBfpSaKuwQ
8Ut_Ji14Vqg69QNd37V6Tg,yelp,Donut Friend,"543 S Broadway, Los Angeles, CA",bakery,2,,4.5,4.5,34.047183287034,-118.251773938537,6th / Broadway,71.1,16,https://www.yelp.com/biz/donut-friend-los-angeles-14?adjust_creative=85PVB_CXUayFuBfpSaKuwQ&utm_campaign=yelp_api_v3&utm_medium=api_v3_business_search&utm_source=85PVB_CXUayFuBfpSaKuwQ
f2UmoCEp2kCI9nKRSe_Qzg,yelp,Crafted Donuts,"3959 Wilshire Blvd, Los Angeles, CA",bakery,1,,4.5,4.5,34.06205424363053,-118.313283,Wilshire / Wilton,117.7,20,https://www.yelp.com/biz/crafted-donuts-los-angeles-2?adjust_creative=85PVB_CXUayFuBfpSaKuwQ&utm_campaign=yelp_api_v3&utm_medium=api_v3_business_search&utm_source=85PVB_CXUayFuBfpSaKuwQ
wQWD5V061jjvqx1PW8IosQ,yelp,Bake & Che,"8968 Garvey Ave, Rosemead, CA",bakery,2,,4.5,4.5,34.0624905352848,-118.0732442709073,Garvey / Garvey Community Center,158.4,70,https://www.yelp.com/biz/bake-and-che-rosemead?adjust_creative=85PVB_CXUayFuBfpSaKuwQ&utm_campaign=yelp_api_v3&utm_medium=api_v3_business_search&utm_source=85PVB_CXUayFuBfpSaKuwQ
ChIJb4cueJ64woAR7W1DzHLyo-U,google,Baskin-Robbins,"4048 W 3rd St, Los Angeles, CA 90020, USA",bakery,1,4.4,,4.4,34.0687506,-118.3017799,3rd / Kingsley,115.1,16,https://www.google.com/maps/place/?q=place_id:ChIJb4cueJ64woAR7W1DzHLyo-U
ChIJz3nnNoG8woARM2mO30LUT-Q,google,Ralphs Fresh Fare,"10861 Weyburn Ave, Los Angeles, CA 90024, USA",bakery,2,4.4,,4.4,34.0630182,-118.4444677,Le Conte / Westwood,83.5,2,https://www.google.com/maps/place/?q=place_id:ChIJz3nnNoG8woARM2mO30LUT-Q
ChIJy0s7IYuzwoARXdxQxQxAojk,google,Baskin-Robbins,"925 N Sepulveda Blvd, Manhattan Beach, CA 90266, USA",bakery,1,4.4,,4.4,33.88543,-118.3963817,Sepulveda / 8th,170.0,232,https://www.google.com/maps/place/?q=place_id:ChIJy0s7IYuzwoARXdxQxQxAojk
ChIJrXmBX-uzwoARH_RRztrL1Gc,google,Beckers Bakery,"1025 Manhattan Ave, Manhattan Beach, CA 90266, USA",bakery,2,4.4,,4.4,33.8839483,-118.4105027,Sepulveda / 8th,1326.2,232,https://www.google.com/maps/place/?q=place_id:ChIJrXmBX-uzwoARH_RRztrL1Gc
Z_kqHb2Ult2iqi2Z3VvzFw,yelp,Modern,"1529 Griffith Park Blvd, Los Angeles, CA",bakery,,,4.4,4.4,34.090913,-118.277282,Sunset / Lucile,117.5,2,https://www.yelp.com/biz/modern-los-angeles?adjust_creative=85PVB_CXUayFuBfpSaKuwQ&utm_campaign=yelp_api_v3&utm_medium=api_v3_business_search&utm_source=85PVB_CXUayFuBfpSaKuwQ
1RjpFWxOMvJRbhpZF7vZqA,yelp,Lonzo's Restaurant,"10804 Washington Blvd, Culver City, CA",bakery,2,,4.4,4.4,34.015007,-118.407244,Venice / Girard,344.7,33,https://www.yelp.com/biz/lonzos-restaurant-culver-city-3?adjust_creative=85PVB_CXUayFuBfpSaKuwQ&utm_campaign=yelp_api_v3&utm_medium=api_v3_business_search&utm_source=85PVB_CXUayFuBfpSaKuwQ
Y2_4gSj9r2pzktbkWZrlig,yelp,Lodge Bread,"295 S Robertson Blvd, Beverly Hills, CA",bakery,2,,4.4,4.4,34.06242,-118.38383,Olympic / Robertson,323.2,28,https://www.yelp.com/biz/lodge-bread-beverly-hills?adjust_creative=85PVB_CXUayFuBfpSaKuwQ&utm_campaign=yelp_api_v3&utm_medium=api_v3_business_search&utm_source=85PVB_CXUayFuBfpSaKuwQ
pMm59UxARbjChXDZW6cVhw,yelp,Out Of Ordi,"3524 W 8th St, Los Angeles, CA",bakery,2,,4.4,4.4,34.05739,-118.30756,8th / Serrano,79.1,66,https://www.yelp.com/biz/out-of-ordi-los-angeles-2?adjust_creative=85PVB_CXUayFuBfpSaKuwQ&utm_campaign=yelp_api_v3&utm_medium=api_v3_business_search&utm_source=85PVB_CXUayFuBfpSaKuwQ
EEjpOifTash2jAPVOkUgtg,yelp,The Place To Be,"2510 Main St, Santa Monica, CA",bakery,2,,4.4,4.4,34.00302,-118.48492,Main / Sunset,1226.8,33,https://www.yelp.com/biz/the-place-to-be-santa-monica-5?adjust_creative=85PVB_CXUayFuBfpSaKuwQ&utm_campaign=yelp_api_v3&utm_medium=api_v3_business_search&utm_source=85PVB_CXUayFuBfpSaKuwQ
6bJHz0HfXsPm6Q45Sr6QsA,yelp,Pasticceria Pitteri,"Strada Nova 3843A, Venezia, VE",bakery,2,,4.4,4.4,45.4413552,12.3339583,Sayre / Eldridge,9858615.5,234,https://www.yelp.com/biz/pasticceria-pitteri-venezia?adjust_creative=85PVB_CXUayFuBfpSaKuwQ&utm_campaign=yelp_api_v3&utm_medium=api_v3_business_search&utm_source=85PVB_CXUayFuBfpSaKuwQ
wqYaVXayRRq2rLsOA_eeVw,yelp,Calic Bagel,"2748 W 8th St, Los Angeles, CA",bakery,2,,4.4,4.4,34.05752643924395,-118.28580319761708,8th / Hoover,100.4,66,https://www.yelp.com/biz/calic-bagel-los-angeles?adjust_creative=85PVB_CXUayFuBfpSaKuwQ&utm_campaign=yelp_api_v3&utm_medium=api_v3_business_search&utm_source=85PVB_CXUayFuBfpSaKuwQ
n44-dkjyvrqNpuN2J9chNQ,yelp,Maison Matho,"4770 Melrose Ave, Los Angeles, CA",bakery,2,,4.4,4.4,34.08332,-118.304284,Normandie / Melrose,342.6,206,https://www.yelp.com/biz/maison-matho-los-angeles?adjust_creative=85PVB_CXUayFuBfpSaKuwQ&utm_campaign=yelp_api_v3&utm_medium=api_v3_business_search&utm_source=85PVB_CXUayFuBfpSaKuwQ
ijrcM6rmlsu0F_8qVQtuWw,yelp,Just What I Kneaded,"2029 Blake Ave, Los Angeles, CA",bakery,2,,4.4,4.4,34.10252031494197,-118.243571072817,Sunset / Echo Park,3115.4,4,https://www.yelp.com/biz/just-what-i-kneaded-los-angeles-2?adjust_creative=85PVB_CXUayFuBfpSaKuwQ&utm_campaign=yelp_api_v3&utm_medium=api_v3_business_search&utm_source=85PVB_CXUayFuBfpSaKuwQ
HMLmVDW9F92nSzeAAZ7mFg,yelp,Papillon International Bakery,"5019 Hollywood Blvd, Los Angeles, CA",bakery,2,,4.4,4.4,34.101925235842344,-118.29895785524168,Normandie / Hollywood,140.7,206,https://www.yelp.com/biz/papillon-international-bakery-los-angeles?adjust_creative=85PVB_CXUayFuBfpSaKuwQ&utm_campaign=yelp_api_v3&utm_medium=api_v3_business_search&utm_source=85PVB_CXUayFuBfpSaKuwQ
bnv6562m1B_61In_jJexwA,yelp,Drago Bakery/ Dolce Forno,"3828 Willat Ave, Culver City, CA",bakery,1,,4.4,4.4,34.0267113,-118.3908828,Venice / Culver,178.6,33,https://www.yelp.com/biz/drago-bakery-dolce-forno-culver-city?adjust_creative=85PVB_CXUayFuBfpSaKuwQ&utm_campaign=yelp_api_v3&utm_medium=api_v3_business_search&utm_source=85PVB_CXUayFuBfpSaKuwQ
kR3weNZxNQTO4uIlCJrQCQ,yelp,Coppelias Bakery & Restaurant,"10825 Venice Blvd, Los Angeles, CA",bakery,2,,4.4,4.4,34.0175867,-118.40979569052134,Venice / Girard,145.1,33,https://www.yelp.com/biz/coppelias-bakery-and-restaurant-los-angeles?adjust_creative=85PVB_CXUayFuBfpSaKuwQ&utm_campaign=yelp_api_v3&utm_medium=api_v3_business_search&utm_source=85PVB_CXUayFuBfpSaKuwQ
iQh7bDgq5CKSoywFns4zEA,yelp,Angelino's Donuts,"1522 W Sunset Blvd, Los Angeles, CA",bakery,1,,4.4,4.4,34.07576442688243,-118.25592617404418,Sunset / Portia,142.3,4,https://www.yelp.com/biz/angelinos-donuts-los-angeles?adjust_creative=85PVB_CXUayFuBfpSaKuwQ&utm_campaign=yelp_api_v3&utm_medium=api_v3_business_search&utm_source=85PVB_CXUayFuBfpSaKuwQ
lqBdtPVN5uutCvLJsEPnXw,yelp,Bezian's Bakery,"4715 Santa Monica Blvd, Los Angeles, CA",bakery,2,,4.4,4.4,34.09104,-118.29252,Santa Monica / Vermont,53.1,4,https://www.yelp.com/biz/bezians-bakery-los-angeles?adjust_creative=85PVB_CXUayFuBfpSaKuwQ&utm_campaign=yelp_api_v3&utm_medium=api_v3_business_search&utm_source=85PVB_CXUayFuBfpSaKuwQ
Vh-U7n5Gpv6DW239Mruujw,yelp,Top Tier Treats,"11511 W Pico Blvd, Los Angeles, CA",bakery,2,,4.4,4.4,34.0332917,-118.442891,Nebraska / Sepulveda,1383.5,4,https://www.yelp.com/biz/top-tier-treats-los-angeles?adjust_creative=85PVB_CXUayFuBfpSaKuwQ&utm_campaign=yelp_api_v3&utm_medium=api_v3_business_search&utm_source=85PVB_CXUayFuBfpSaKuwQ
8zO-Lvbw5ogjs2HfoPQlDw,yelp,New York Bagel and Deli,"11700 National Blvd, Los Angeles, CA",bakery,1,,4.4,4.4,34.0221523,-118.4387735,Venice / McLaughlin,1965.3,33,https://www.yelp.com/biz/new-york-bagel-and-deli-los-angeles-2?adjust_creative=85PVB_CXUayFuBfpSaKuwQ&utm_campaign=yelp_api_v3&utm_medium=api_v3_business_search&utm_source=85PVB_CXUayFuBfpSaKuwQ
Zzueg_h1VFtr-y0bGGBKCw,yelp,Belwood Bakery Cafe,"11625 Barrington Ct, Los Angeles, CA",bakery,1,,4.4,4.4,34.06513371655,-118.46948765075,Wilshire / Bonsall,1743.0,720,https://www.yelp.com/biz/belwood-bakery-cafe-los-angeles?adjust_creative=85PVB_CXUayFuBfpSaKuwQ&utm_campaign=yelp_api_v3&utm_medium=api_v3_business_search&utm_source=85PVB_CXUayFuBfpSaKuwQ
gIukQR3AhHv4D765sMm2Vw,yelp,Starbread,"50 Sand Creek Rd, Brentwood, CA",bakery,,,4.4,4.4,37.946081,-121.697203,Foothill / Roxford,496804.8,224,https://www.yelp.com/biz/starbread-brentwood-4?adjust_creative=85PVB_CXUayFuBfpSaKuwQ&utm_campaign=yelp_api_v3&utm_medium=api_v3_business_search&utm_source=85PVB_CXUayFuBfpSaKuwQ
USnS3Y_H_RBea1LNBzgRcQ,yelp,Giant Donuts,"2059 Main St, Oakley, CA",bakery,1,,4.4,4.4,38.00316,-121.73351,Foothill / Roxford,503795.1,224,https://www.yelp.com/biz/giant-donuts-oakley?adjust_creative=85PVB_CXUayFuBfpSaKuwQ&utm_campaign=yelp_api_v3&utm_medium=api_v3_business_search&utm_source=85PVB_CXUayFuBfpSaKuwQ
An6-h3kfmpyW_t3lB2LmTg,yelp,Old Ferry Donut ,"704 W Las Tunas Dr, San Gabriel, CA",bakery,2,,4.4,4.4,34.10218593184533,-118.109845,Main / Chapel,1438.0,78,https://www.yelp.com/biz/old-ferry-donut-san-gabriel-3?adjust_creative=85PVB_CXUayFuBfpSaKuwQ&utm_campaign=yelp_api_v3&utm_medium=api_v3_business_search&utm_source=85PVB_CXUayFuBfpSaKuwQ
S6BDJjfJWaeJvtbLT0X15Q,yelp,Lido Bakery,"3001 N Sepulveda Blvd, Manhattan Beach, CA",bakery,2,,4.4,4.4,33.89753841622289,-118.3964639,Sepulveda / 30th,30.6,232,https://www.yelp.com/biz/lido-bakery-manhattan-beach?adjust_creative=85PVB_CXUayFuBfpSaKuwQ&utm_campaign=yelp_api_v3&utm_medium=api_v3_business_search&utm_source=85PVB_CXUayFuBfpSaKuwQ
seoLZWeWLEhogoqIMbfqcA,yelp,Dough Boy Donuts,"204 E Imperial Ave, El Segundo, CA",bakery,1,,4.4,4.4,33.9307173,-118.4145853,Pacific Coast Highway / Walnut,1684.7,232,https://www.yelp.com/biz/dough-boy-donuts-el-segundo?adjust_creative=85PVB_CXUayFuBfpSaKuwQ&utm_campaign=yelp_api_v3&utm_medium=api_v3_business_search&utm_source=85PVB_CXUayFuBfpSaKuwQ
G0aSKAOCfFaFKV56d2wA1Q,yelp,Confections by Kirari West,"625 N Pacific Coast Hwy, Redondo Beach, CA",bakery,2,,4.4,4.4,33.85235353075323,-118.39017216905688,Pacific Coast Highway / Irena,42.2,232,https://www.yelp.com/biz/confections-by-kirari-west-redondo-beach?adjust_creative=85PVB_CXUayFuBfpSaKuwQ&utm_campaign=yelp_api_v3&utm_medium=api_v3_business_search&utm_source=85PVB_CXUayFuBfpSaKuwQ
962VVkeS5JR9d6c1DIWTbA,yelp,Pink Orchid Bakery and Cafe,"145 N Jackson St, Glendale, CA",bakery,1,,4.4,4.4,34.148138,-118.250342,Hollywood / New Hampshire Layover,6449.3,217,https://www.yelp.com/biz/pink-orchid-bakery-and-cafe-glendale?adjust_creative=85PVB_CXUayFuBfpSaKuwQ&utm_campaign=yelp_api_v3&utm_medium=api_v3_business_search&utm_source=85PVB_CXUayFuBfpSaKuwQ
U3vmuw2VWyZ-XbiHWroiNA,yelp,La Rochelle Bakery & Cafe,"5050 Vineland Ave, North Hollywood, CA",bakery,2,,4.4,4.4,34.16256772209737,-118.3700929036072,Lankershim / Hesby,241.8,224,https://www.yelp.com/biz/la-rochelle-bakery-and-cafe-north-hollywood?adjust_creative=85PVB_CXUayFuBfpSaKuwQ&utm_campaign=yelp_api_v3&utm_medium=api_v3_business_search&utm_source=85PVB_CXUayFuBfpSaKuwQ
TT3OUeKPiTqkkE8gAXbidg,yelp,Paris Baguette,"750 S Oxford Ave, Los Angeles, CA",bakery,,,4.4,4.4,34.05825321880993,-118.30753017293176,8th / Western,104.4,66,https://www.yelp.com/biz/paris-baguette-los-angeles-18?adjust_creative=85PVB_CXUayFuBfpSaKuwQ&utm_campaign=yelp_api_v3&utm_medium=api_v3_business_search&utm_source=85PVB_CXUayFuBfpSaKuwQ
kExUD2WJ1_ZthV01h7mv0A,yelp,King's Donuts,"14253 Hawthorne Blvd, Hawthorne, CA",bakery,1,,4.4,4.4,33.902107,-118.35321,Crenshaw / Rosecrans,2448.8,210,https://www.yelp.com/biz/kings-donuts-hawthorne-2?adjust_creative=85PVB_CXUayFuBfpSaKuwQ&utm_campaign=yelp_api_v3&utm_medium=api_v3_business_search&utm_source=85PVB_CXUayFuBfpSaKuwQ
ChIJyy_0pjnGwoARUrtoUB06RL0,google,Beard Papa's - Little Tokyo,"333 Alameda St Ste 106, Los Angeles, CA 90013, USA",bakery,1,4.3,,4.3,34.0455505,-118.2386301,5th / Towne,402.5,16,https://www.google.com/maps/place/?q=place_id:ChIJyy_0pjnGwoARUrtoUB06RL0
ChIJR5RKjUfHwoARU1OW4pKvxqE,google,Baskin-Robbins,"3516 Sunset Blvd, Los Angeles, CA 90026, USA",bakery,1,4.3,,4.3,34.0890936,-118.2768141,Sunset / Maltman,63.0,2,https://www.google.com/maps/place/?q=place_id:ChIJR5RKjUfHwoARU1OW4pKvxqE
ChIJRYlAs7rAwoAReJZ3vhHAdTk,google,Albertsons,"2035 Hillhurst Ave, Los Angeles, CA 90027, USA",bakery,2,4.3,,4.3,34.1088116,-118.2879492,Hollywood / New Hampshire Layover,882.3,217,https://www.google.com/maps/place/?q=place_id:ChIJRYlAs7rAwoAReJZ3vhHAdTk
ChIJf5fVvoO8woARChfRh6MOi8o,google,Whole Foods Market,"1050 Gayley Ave, Los Angeles, CA 90024, USA",bakery,3,4.3,,4.3,34.0611873,-118.4469309,Westwood / Weyburn,213.9,2,https://www.google.com/maps/place/?q=place_id:ChIJf5fVvoO8woARChfRh6MOi8o
ChIJ7d9Zlcu4woAR0gYUAMiT3Cw,google,Pavilions,"727 Vine St, Los Angeles, CA 90038, USA",bakery,,4.3,,4.3,34.084534,-118.3271536,Rossmore / Melrose,146.3,210,https://www.google.com/maps/place/?q=place_id:ChIJ7d9Zlcu4woAR0gYUAMiT3Cw
ChIJz_K9rHzDwoARA-LuARfmYqY,google,Whole Foods Market,"465 S Arroyo Pkwy, Pasadena, CA 91105, USA",bakery,3,4.3,,4.3,34.13782339999999,-118.1478342,Main / Fremont,4729.7,78,https://www.google.com/maps/place/?q=place_id:ChIJz_K9rHzDwoARA-LuARfmYqY
ChIJbalu4-yzwoARcSWJeSPTzT0,google,Vons,"410 Manhattan Beach Blvd, Manhattan Beach, CA 90266, USA",bakery,,4.3,,4.3,33.8850913,-118.4078617,Sepulveda / 8th,1090.3,232,https://www.google.com/maps/place/?q=place_id:ChIJbalu4-yzwoARcSWJeSPTzT0
m6wLHehARZRZ-9-f-i5mSQ,yelp,Layla Bagels & Coffee,"233 S Beverly Dr, Beverly Hills, CA",bakery,2,,4.3,4.3,34.0637743,-118.3994051838562,Olympic / Beverwil,438.7,28,https://www.yelp.com/biz/layla-bagels-and-coffee-beverly-hills?adjust_creative=85PVB_CXUayFuBfpSaKuwQ&utm_campaign=yelp_api_v3&utm_medium=api_v3_business_search&utm_source=85PVB_CXUayFuBfpSaKuwQ
bCynbdA4wd_uc9M5RefVmA,yelp,Bread Lounge,"700 S Santa Fe Ave, Los Angeles, CA",bakery,2,,4.3,4.3,34.034325,-118.229668,Alameda / 6th Layover,874.8,720,https://www.yelp.com/biz/bread-lounge-los-angeles?adjust_creative=85PVB_CXUayFuBfpSaKuwQ&utm_campaign=yelp_api_v3&utm_medium=api_v3_business_search&utm_source=85PVB_CXUayFuBfpSaKuwQ
wnuzfytT0YDZx1bTkTJyNA,yelp,Francoisa Bakery,"1015 S Wall St, Los Angeles, CA",bakery,1,,4.3,4.3,34.03750321260089,-118.25342820177944,9th / Maple,228.0,66,https://www.yelp.com/biz/francoisa-bakery-los-angeles-2?adjust_creative=85PVB_CXUayFuBfpSaKuwQ&utm_campaign=yelp_api_v3&utm_medium=api_v3_business_search&utm_source=85PVB_CXUayFuBfpSaKuwQ
L8zEWn847lgFsI5zfPc57A,yelp,Layla Bagels & Coffee,"1614 Ocean Park Blvd, Santa Monica, CA",bakery,2,,4.3,4.3,34.01160158018382,-118.46807104847946,Main / Sunset,2034.3,33,https://www.yelp.com/biz/layla-bagels-and-coffee-santa-monica-2?adjust_creative=85PVB_CXUayFuBfpSaKuwQ&utm_campaign=yelp_api_v3&utm_medium=api_v3_business_search&utm_source=85PVB_CXUayFuBfpSaKuwQ
Ce0ziv515o1S3i_ENDs5kQ,yelp,Jyan Isaac Bread,"1620 Ocean Park Blvd, Santa Monica, CA",bakery,2,,4.3,4.3,34.011638,-118.467867,Main / Sunset,2045.2,33,https://www.yelp.com/biz/jyan-isaac-bread-santa-monica?adjust_creative=85PVB_CXUayFuBfpSaKuwQ&utm_campaign=yelp_api_v3&utm_medium=api_v3_business_search&utm_source=85PVB_CXUayFuBfpSaKuwQ
BJJgSjcorutYOXcYM-FNWQ,yelp,Frogs Organic Bakery,"741 Gretna Green Way, Brentwood, CA",bakery,,,4.3,4.3,34.0506152808666,-118.475160375237,Wilshire / Bundy,999.9,720,https://www.yelp.com/biz/frogs-organic-bakery-brentwood?adjust_creative=85PVB_CXUayFuBfpSaKuwQ&utm_campaign=yelp_api_v3&utm_medium=api_v3_business_search&utm_source=85PVB_CXUayFuBfpSaKuwQ
c0GDhiK7FqwN5BCcwvG-4w,yelp,Courage Bagels,"777 N Virgil Ave, Los Angeles, CA",bakery,2,,4.3,4.3,34.085526,-118.287068,Vermont / Monroe,414.0,204,https://www.yelp.com/biz/courage-bagels-los-angeles?adjust_creative=85PVB_CXUayFuBfpSaKuwQ&utm_campaign=yelp_api_v3&utm_medium=api_v3_business_search&utm_source=85PVB_CXUayFuBfpSaKuwQ
TMGJSFYSD1DElnLOW2iJSA,yelp,Manmi Bakery,"869 S Western Ave, Los Angeles, CA",bakery,1,,4.3,4.3,34.0561999,-118.30941,8th / Western,195.3,66,https://www.yelp.com/biz/manmi-bakery-los-angeles?adjust_creative=85PVB_CXUayFuBfpSaKuwQ&utm_campaign=yelp_api_v3&utm_medium=api_v3_business_search&utm_source=85PVB_CXUayFuBfpSaKuwQ
G_9bJGizhgFzElrHSrOwXw,yelp,Maury's,"2829 Bellevue Ave, Los Angeles, CA",bakery,2,,4.3,4.3,34.07694320833841,-118.27561136427842,Sunset / Benton,613.2,2,https://www.yelp.com/biz/maurys-los-angeles?adjust_creative=85PVB_CXUayFuBfpSaKuwQ&utm_campaign=yelp_api_v3&utm_medium=api_v3_business_search&utm_source=85PVB_CXUayFuBfpSaKuwQ
Q3R9DRc5IDUNe_2gh8KExg,yelp,Daily Donuts,"1908 Hillhurst Ave, Los Angeles, CA",bakery,1,,4.3,4.3,34.1056067,-118.2872751,Hollywood / New Hampshire Layover,642.0,217,https://www.yelp.com/biz/daily-donuts-los-angeles-7?adjust_creative=85PVB_CXUayFuBfpSaKuwQ&utm_campaign=yelp_api_v3&utm_medium=api_v3_business_search&utm_source=85PVB_CXUayFuBfpSaKuwQ
iAD747dKlbx2tf3YMyR8Kg,yelp,Levain Bakery,"130 S Beverly Dr, Beverly Hills, CA",bakery,,,4.3,4.3,34.065865,-118.398852,Wilshire / Rodeo,312.0,20,https://www.yelp.com/biz/levain-bakery-beverly-hills?adjust_creative=85PVB_CXUayFuBfpSaKuwQ&utm_campaign=yelp_api_v3&utm_medium=api_v3_business_search&utm_source=85PVB_CXUayFuBfpSaKuwQ
lH5_ACeOSEOKdVMWeHnZcw,yelp,Tasty Donuts & Cafe,"8205 Santa Monica Blvd, West Hollywood, CA",bakery,1,,4.3,4.3,34.091073,-118.367701,Santa Monica / La Jolla,26.5,4,https://www.yelp.com/biz/tasty-donuts-and-cafe-west-hollywood?adjust_creative=85PVB_CXUayFuBfpSaKuwQ&utm_campaign=yelp_api_v3&utm_medium=api_v3_business_search&utm_source=85PVB_CXUayFuBfpSaKuwQ
h-Cma_ZH-FEcKSV6JiXGXQ,yelp,Cake Monkey Bakery,"7807 Beverly Blvd, Los Angeles, CA",bakery,2,,4.3,4.3,34.0762549,-118.359636,Beverly / Genesee,105.1,14,https://www.yelp.com/biz/cake-monkey-bakery-los-angeles-3?adjust_creative=85PVB_CXUayFuBfpSaKuwQ&utm_campaign=yelp_api_v3&utm_medium=api_v3_business_search&utm_source=85PVB_CXUayFuBfpSaKuwQ
oPpflGrMoAYDCHdkRsDcgA,yelp,Good Time Donuts,"2548 W Temple St, Los Angeles, CA",bakery,1,,4.3,4.3,34.072208404541,-118.274090588093,Beverly / Benton,415.5,14,https://www.yelp.com/biz/good-time-donuts-los-angeles?adjust_creative=85PVB_CXUayFuBfpSaKuwQ&utm_campaign=yelp_api_v3&utm_medium=api_v3_business_search&utm_source=85PVB_CXUayFuBfpSaKuwQ
PMc5MEKcHAiZmBv6Mb1_yA,yelp,Primo's Donuts,"2918 Sawtelle Blvd, Los Angeles, CA",bakery,2,,4.3,4.3,34.02704,-118.43147,Venice / Sawtelle,2020.5,33,https://www.yelp.com/biz/primos-donuts-los-angeles?adjust_creative=85PVB_CXUayFuBfpSaKuwQ&utm_campaign=yelp_api_v3&utm_medium=api_v3_business_search&utm_source=85PVB_CXUayFuBfpSaKuwQ
Ql1OQ4mn3SHI__8cYG7JEQ,yelp,Tous Les Jours,"2440 Sand Creek Rd, Brentwood, CA",bakery,2,,4.3,4.3,37.94175680919571,-121.73789156109775,Foothill / Roxford,498566.5,224,https://www.yelp.com/biz/tous-les-jours-brentwood?adjust_creative=85PVB_CXUayFuBfpSaKuwQ&utm_campaign=yelp_api_v3&utm_medium=api_v3_business_search&utm_source=85PVB_CXUayFuBfpSaKuwQ
pQwHF71BFb2ZaHAYfkm3ug,yelp,BAKE Cheese Tart,"10250 Santa Monica Blvd, Los Angeles, CA",bakery,2,,4.3,4.3,34.05750083085742,-118.4183317,Century Park West / Solar,219.0,28,https://www.yelp.com/biz/bake-cheese-tart-los-angeles?adjust_creative=85PVB_CXUayFuBfpSaKuwQ&utm_campaign=yelp_api_v3&utm_medium=api_v3_business_search&utm_source=85PVB_CXUayFuBfpSaKuwQ
oehGS2nQdiCABYforprCiA,yelp,Miopane,"95 N Raymond Ave, Pasadena, CA",bakery,,,4.3,4.3,34.147505,-118.149219,Main / Fremont,5795.0,78,https://www.yelp.com/biz/miopane-pasadena?adjust_creative=85PVB_CXUayFuBfpSaKuwQ&utm_campaign=yelp_api_v3&utm_medium=api_v3_business_search&utm_source=85PVB_CXUayFuBfpSaKuwQ
fqOC4J0MyfNBjZLcJMHQzw,yelp,Syndicate,"18 W Sierra Madre Blvd, Sierra Madre, CA",bakery,2,,4.3,4.3,34.161613,-118.053222,Valley / Temple City,8932.3,76,https://www.yelp.com/biz/syndicate-sierra-madre-2?adjust_creative=85PVB_CXUayFuBfpSaKuwQ&utm_campaign=yelp_api_v3&utm_medium=api_v3_business_search&utm_source=85PVB_CXUayFuBfpSaKuwQ
0kn7PcLsE0tpyU-VRJoEDg,yelp,Mamolo's Fine Pastries,"707 N Sepulveda Blvd, Manhattan Beach, CA",bakery,,,4.3,4.3,33.88324,-118.39658,Sepulveda / 8th,82.0,232,https://www.yelp.com/biz/mamolos-fine-pastries-manhattan-beach?adjust_creative=85PVB_CXUayFuBfpSaKuwQ&utm_campaign=yelp_api_v3&utm_medium=api_v3_business_search&utm_source=85PVB_CXUayFuBfpSaKuwQ
xO9b6fcD7kZh0hCTkyUwEw,yelp,The Baked Bear,"49 Pier Ave, Hermosa Beach, CA",bakery,2,,4.3,4.3,33.86231,-118.40095,Pacific Coast Highway / 11th,761.3,232,https://www.yelp.com/biz/the-baked-bear-hermosa-beach-4?adjust_creative=85PVB_CXUayFuBfpSaKuwQ&utm_campaign=yelp_api_v3&utm_medium=api_v3_business_search&utm_source=85PVB_CXUayFuBfpSaKuwQ
ffuTjVCfD7NdXgVRYs5_PA,yelp,Nothing Bundt Cakes,"1570-Q Rosecrans Ave, Manhattan Beach, CA",bakery,2,,4.3,4.3,33.9004322,-118.3857297,Sepulveda / Rosecrans,952.9,232,https://www.yelp.com/biz/nothing-bundt-cakes-manhattan-beach?adjust_creative=85PVB_CXUayFuBfpSaKuwQ&utm_campaign=yelp_api_v3&utm_medium=api_v3_business_search&utm_source=85PVB_CXUayFuBfpSaKuwQ
YiyeoKv-seF5yezrjPsCYA,yelp,Niko’s Donuts,"2429 190th St, Redondo Beach, CA",bakery,,,4.3,4.3,33.8585429,-118.3674273,Hawthorne / 190th,1257.5,344,https://www.yelp.com/biz/niko-s-donuts-redondo-beach?adjust_creative=85PVB_CXUayFuBfpSaKuwQ&utm_campaign=yelp_api_v3&utm_medium=api_v3_business_search&utm_source=85PVB_CXUayFuBfpSaKuwQ
QxDuIB8NO41LUttedb_Duw,yelp,Mush Bakery,"5224 W Sunset Blvd, Los Angeles, CA",bakery,1,,4.3,4.3,34.097515800560586,-118.30407184475963,Sunset / Kingsley,102.5,2,https://www.yelp.com/biz/mush-bakery-los-angeles?adjust_creative=85PVB_CXUayFuBfpSaKuwQ&utm_campaign=yelp_api_v3&utm_medium=api_v3_business_search&utm_source=85PVB_CXUayFuBfpSaKuwQ
HPDk093qwYwCS0Lwkd6xJg,yelp,Somochi,"728 S Olive St, Los Angeles, CA",bakery,1,,4.3,4.3,34.045699,-118.256084,8th / Olive,94.8,66,https://www.yelp.com/biz/somochi-los-angeles-3?adjust_creative=85PVB_CXUayFuBfpSaKuwQ&utm_campaign=yelp_api_v3&utm_medium=api_v3_business_search&utm_source=85PVB_CXUayFuBfpSaKuwQ
P-66iHCsbQSpU4kRq1dbdg,yelp,Sweet Donut Time,"3064 W 8th St, Los Angeles, CA",bakery,2,,4.3,4.3,34.057466,-118.293795,8th / Catalina,126.1,66,https://www.yelp.com/biz/sweet-donut-time-los-angeles-2?adjust_creative=85PVB_CXUayFuBfpSaKuwQ&utm_campaign=yelp_api_v3&utm_medium=api_v3_business_search&utm_source=85PVB_CXUayFuBfpSaKuwQ
rJCt5QE7g7YZrXxjyBpAig,yelp,BC’s Donuts,"2525 E Foothill Blvd, Pasadena, CA",bakery,1,,4.3,4.3,34.15023,-118.09831,Main / Chapel,6407.7,78,https://www.yelp.com/biz/bc-s-donuts-pasadena?adjust_creative=85PVB_CXUayFuBfpSaKuwQ&utm_campaign=yelp_api_v3&utm_medium=api_v3_business_search&utm_source=85PVB_CXUayFuBfpSaKuwQ
ChIJnRVpnsW-woARBd7NUNgKIMU,google,Whole Foods Market,"7871 Santa Monica Blvd, West Hollywood, CA 90046, USA",bakery,3,4.2,,4.2,34.0915208,-118.3607656,Fairfax / Santa Monica,68.4,217,https://www.google.com/maps/place/?q=place_id:ChIJnRVpnsW-woARBd7NUNgKIMU
ChIJ1zUA9k6_woARn56C3cZ-Yps,google,Vons,"4520 Sunset Blvd, Los Angeles, CA 90027, USA",bakery,,4.2,,4.2,34.0970657,-118.287983,Sunset / Virgil,115.0,2,https://www.google.com/maps/place/?q=place_id:ChIJ1zUA9k6_woARn56C3cZ-Yps
ChIJSYmsUwy7woARwW01p9zUXHY,google,Ralphs Fresh Fare,"11727 W Olympic Blvd, Los Angeles, CA 90064, USA",bakery,2,4.2,,4.2,34.0349195,-118.4490712,Santa Monica / Barrington,1194.8,4,https://www.google.com/maps/place/?q=place_id:ChIJSYmsUwy7woARwW01p9zUXHY
ChIJDQE3A6y7woAR4hKGnZTA8yM,google,Ralphs,"11361 National Blvd, Los Angeles, CA 90064, USA",bakery,2,4.2,,4.2,34.0260615,-118.4333132,Venice / Sawtelle,2026.7,33,https://www.google.com/maps/place/?q=place_id:ChIJDQE3A6y7woAR4hKGnZTA8yM
ChIJnZ7NM3W7woARbdWgirvKqWs,google,Beard Papa's - Sawtelle,"2130 Sawtelle Blvd #110, Los Angeles, CA 90025, USA",bakery,1,4.2,,4.2,34.0392467,-118.4416478,Nebraska / Sepulveda,737.1,4,https://www.google.com/maps/place/?q=place_id:ChIJnZ7NM3W7woARbdWgirvKqWs
ChIJYdVR8Vy7woARyzEd5kOumHw,google,Ralphs Fresh Fare,"12057 Wilshire Blvd, Los Angeles, CA 90025, USA",bakery,2,4.2,,4.2,34.04497,-118.4670728,Wilshire / Bundy,115.5,720,https://www.google.com/maps/place/?q=place_id:ChIJYdVR8Vy7woARyzEd5kOumHw
ChIJ1S9RcHbDwoART2nGFcV37tU,google,Ralphs Fresh Fare,"320 W Colorado Blvd, Pasadena, CA 91105, USA",bakery,2,4.2,,4.2,34.14522000000001,-118.1569545,Main / Hampden Terrace,5533.1,78,https://www.google.com/maps/place/?q=place_id:ChIJ1S9RcHbDwoART2nGFcV37tU
ChIJ-U_qDUPDwoAR7KxUK_89KBY,google,Ralphs,"160 N Lake Ave, Pasadena, CA 91101, USA",bakery,2,4.2,,4.2,34.1489613,-118.1312764,Woodward / Garfield,5709.9,78,https://www.google.com/maps/place/?q=place_id:ChIJ-U_qDUPDwoAR7KxUK_89KBY
eEpvCtDpzg__Ceeqk_qYqQ,yelp,United Bread & Pastry,"1515 Griffith Park Blvd, Los Angeles, CA",bakery,1,,4.2,4.2,34.09045,-118.27699,Sunset / Maltman,74.2,2,https://www.yelp.com/biz/united-bread-and-pastry-los-angeles?adjust_creative=85PVB_CXUayFuBfpSaKuwQ&utm_campaign=yelp_api_v3&utm_medium=api_v3_business_search&utm_source=85PVB_CXUayFuBfpSaKuwQ
H4myDD4D_iOAH0QvzOfDUQ,yelp,Cinnaholic,"2134 Sunset Blvd, Los Angeles, CA",bakery,1,,4.2,4.2,34.07715842,-118.2646873705532,Sunset / Alvarado,85.3,2,https://www.yelp.com/biz/cinnaholic-los-angeles?adjust_creative=85PVB_CXUayFuBfpSaKuwQ&utm_campaign=yelp_api_v3&utm_medium=api_v3_business_search&utm_source=85PVB_CXUayFuBfpSaKuwQ
cdYzAq8bjmgbxd5EyZHioA,yelp,Chaumont,"143 S Beverly Dr, Beverly Hills, CA",bakery,2,,4.2,4.2,34.0660897,-118.3992622,Wilshire / Rodeo,266.9,20,https://www.yelp.com/biz/chaumont-beverly-hills?adjust_creative=85PVB_CXUayFuBfpSaKuwQ&utm_campaign=yelp_api_v3&utm_medium=api_v3_business_search&utm_source=85PVB_CXUayFuBfpSaKuwQ
4zqH3coW8sJ0OZ243fg_3A,yelp,Mensch Bakery,"7122 Beverly Blvd, Los Angeles, CA",bakery,2,,4.2,4.2,34.07573,-118.34482,Beverly / La Brea,60.8,14,https://www.yelp.com/biz/mensch-bakery-los-angeles?adjust_creative=85PVB_CXUayFuBfpSaKuwQ&utm_campaign=yelp_api_v3&utm_medium=api_v3_business_search&utm_source=85PVB_CXUayFuBfpSaKuwQ
alqh0m2e8Pk5L7XX20KjaA,yelp,Chaumont,"2930 Colorado Ave, Santa Monica, CA",bakery,2,,4.2,4.2,34.03336158057471,-118.4676270938289,Santa Monica / 26th,615.0,4,https://www.yelp.com/biz/chaumont-santa-monica-2?adjust_creative=85PVB_CXUayFuBfpSaKuwQ&utm_campaign=yelp_api_v3&utm_medium=api_v3_business_search&utm_source=85PVB_CXUayFuBfpSaKuwQ
VA24h4dewR5qWMXAZKm0Pg,yelp,Levain Bakery,"1661 Abbot Kinney Blvd, Venice, CA",bakery,2,,4.2,4.2,33.98936,-118.46261,Venice / Abbot Kinney,37.4,33,https://www.yelp.com/biz/levain-bakery-venice-3?adjust_creative=85PVB_CXUayFuBfpSaKuwQ&utm_campaign=yelp_api_v3&utm_medium=api_v3_business_search&utm_source=85PVB_CXUayFuBfpSaKuwQ
XEj7YoRwbenNeadSBP-Vsg,yelp,Concerto Bakery,"3500 W 6th St, Los Angeles, CA",bakery,2,,4.2,4.2,34.0631235,-118.2986129,Wilshire / Alexandria,159.7,20,https://www.yelp.com/biz/concerto-bakery-los-angeles-2?adjust_creative=85PVB_CXUayFuBfpSaKuwQ&utm_campaign=yelp_api_v3&utm_medium=api_v3_business_search&utm_source=85PVB_CXUayFuBfpSaKuwQ
J4BUqm7lvCLMow30YtHKsg,yelp,Friends & Family,"2388 Glendale Blvd, Los Angeles, CA",bakery,,,4.2,4.2,34.09988,-118.25892,Sunset / Maltman,1992.5,2,https://www.yelp.com/biz/friends-and-family-los-angeles-2?adjust_creative=85PVB_CXUayFuBfpSaKuwQ&utm_campaign=yelp_api_v3&utm_medium=api_v3_business_search&utm_source=85PVB_CXUayFuBfpSaKuwQ
yF5P79qavr_-lG6JKPhfKQ,yelp,La Maison de Creme Bakery,"265 S Robertson Blvd, Beverly Hills, CA",bakery,2,,4.2,4.2,34.0630378723145,-118.383819580078,Olympic / Robertson,391.9,28,https://www.yelp.com/biz/la-maison-de-creme-bakery-beverly-hills?adjust_creative=85PVB_CXUayFuBfpSaKuwQ&utm_campaign=yelp_api_v3&utm_medium=api_v3_business_search&utm_source=85PVB_CXUayFuBfpSaKuwQ
PkSed7Y7CI9RbS4m6ucfyA,yelp,Michelina,"699 Americana Way, Glendale, CA",bakery,,,4.2,4.2,34.14437154198422,-118.2573541,Hollywood / New Hampshire Layover,5732.0,217,https://www.yelp.com/biz/michelina-glendale-2?adjust_creative=85PVB_CXUayFuBfpSaKuwQ&utm_campaign=yelp_api_v3&utm_medium=api_v3_business_search&utm_source=85PVB_CXUayFuBfpSaKuwQ
iwwPzJ9H93scyUriO18h2w,yelp,The Ivy Bakery - Dolce Isola,"2869 S Robertson Blvd, Los Angeles, CA",bakery,2,,4.2,4.2,34.03536,-118.38946,Venice / Helms,593.1,33,https://www.yelp.com/biz/the-ivy-bakery-dolce-isola-los-angeles?adjust_creative=85PVB_CXUayFuBfpSaKuwQ&utm_campaign=yelp_api_v3&utm_medium=api_v3_business_search&utm_source=85PVB_CXUayFuBfpSaKuwQ
-tfxGCXJ630hYMl-IFnGCw,yelp,Modern Bread & Bagel,"260 N Beverly Dr, Beverly Hills, CA",bakery,,,4.2,4.2,34.068339,-118.400027,Wilshire / Rodeo,207.0,20,https://www.yelp.com/biz/modern-bread-and-bagel-beverly-hills?adjust_creative=85PVB_CXUayFuBfpSaKuwQ&utm_campaign=yelp_api_v3&utm_medium=api_v3_business_search&utm_source=85PVB_CXUayFuBfpSaKuwQ
uca_xwj04wv4sG2wUHV-dw,yelp,The Pie Room by Curtis Stone,"212 S Beverly Dr, Beverly Hills, CA",bakery,,,4.2,4.2,34.064594004923364,-118.3988555,Wilshire / Rodeo,399.5,20,https://www.yelp.com/biz/the-pie-room-by-curtis-stone-beverly-hills?adjust_creative=85PVB_CXUayFuBfpSaKuwQ&utm_campaign=yelp_api_v3&utm_medium=api_v3_business_search&utm_source=85PVB_CXUayFuBfpSaKuwQ
BQbCBMUH987CehRIS-aH8w,yelp,Daughter’s Deli,"1036 S Fairfax Ave, Los Angeles, CA",bakery,2,,4.2,4.2,34.057029487169636,-118.36408234414414,Fairfax / Olympic,79.4,217,https://www.yelp.com/biz/daughter-s-deli-los-angeles-2?adjust_creative=85PVB_CXUayFuBfpSaKuwQ&utm_campaign=yelp_api_v3&utm_medium=api_v3_business_search&utm_source=85PVB_CXUayFuBfpSaKuwQ
LM8ibInhEz5spixi8hTSgg,yelp,Badash Bakes,"247 E Colorado Blvd, Pasadena, CA",bakery,2,,4.2,4.2,34.146004669379934,-118.14527108834336,Woodward / Garfield,5597.2,78,https://www.yelp.com/biz/badash-bakes-pasadena?adjust_creative=85PVB_CXUayFuBfpSaKuwQ&utm_campaign=yelp_api_v3&utm_medium=api_v3_business_search&utm_source=85PVB_CXUayFuBfpSaKuwQ
YLnS-GEaMtFPZsViGkpyig,yelp,Re Bakesic,"188 S Monterey St, Alhambra, CA",bakery,2,,4.2,4.2,34.09449016962039,-118.12359474539456,Main / Chapel,243.8,78,https://www.yelp.com/biz/re-bakesic-alhambra-2?adjust_creative=85PVB_CXUayFuBfpSaKuwQ&utm_campaign=yelp_api_v3&utm_medium=api_v3_business_search&utm_source=85PVB_CXUayFuBfpSaKuwQ
GIsJyE0wix0cZ2dQF6WH7Q,yelp,Gladstone Donut House,"1332 N Lake Ave, Pasadena, CA",bakery,1,,4.2,4.2,34.168815612793,-118.131950378418,Woodward / Garfield,7918.2,78,https://www.yelp.com/biz/gladstone-donut-house-pasadena?adjust_creative=85PVB_CXUayFuBfpSaKuwQ&utm_campaign=yelp_api_v3&utm_medium=api_v3_business_search&utm_source=85PVB_CXUayFuBfpSaKuwQ
HIJ5uzW6yJ_-0x6d4nbwlw,yelp,Uncle Stevey's Bagels,"213 Richmond St, El Segundo, CA",bakery,,,4.2,4.2,33.918344,-118.417362,Pacific Coast Highway / Grand,1956.6,232,https://www.yelp.com/biz/uncle-steveys-bagels-el-segundo?adjust_creative=85PVB_CXUayFuBfpSaKuwQ&utm_campaign=yelp_api_v3&utm_medium=api_v3_business_search&utm_source=85PVB_CXUayFuBfpSaKuwQ
pw-WtIpk-QawOCGdfolzkQ,yelp,Christy's Donuts,"5127 W El Segundo Blvd, Hawthorne, CA",bakery,1,,4.2,4.2,33.9165349,-118.3675133,Nash / Grand,1884.3,232,https://www.yelp.com/biz/christys-donuts-hawthorne?adjust_creative=85PVB_CXUayFuBfpSaKuwQ&utm_campaign=yelp_api_v3&utm_medium=api_v3_business_search&utm_source=85PVB_CXUayFuBfpSaKuwQ
RP8u0dbEuzK3V_TKYNgtbw,yelp,Wild Fork,"1130 N Sepulveda Blvd, Manhattan Beach, CA",bakery,,,4.2,4.2,33.88764069045289,-118.3954597,Sepulveda / Manhattan Beach,35.9,232,https://www.yelp.com/biz/wild-fork-manhattan-beach?adjust_creative=85PVB_CXUayFuBfpSaKuwQ&utm_campaign=yelp_api_v3&utm_medium=api_v3_business_search&utm_source=85PVB_CXUayFuBfpSaKuwQ
FUsBxw0-Dk62-fiE_S5cNg,yelp,Palisades Garden Cafe,"15231 La Cruz Dr, Pacific Palisades, CA",bakery,1,,4.2,4.2,34.0457746,-118.525126941105,Wilshire / 6th,3860.3,20,https://www.yelp.com/biz/palisades-garden-cafe-pacific-palisades?adjust_creative=85PVB_CXUayFuBfpSaKuwQ&utm_campaign=yelp_api_v3&utm_medium=api_v3_business_search&utm_source=85PVB_CXUayFuBfpSaKuwQ
ChIJFdArV7bHwoARwq5whSpuG0Q,google,Ralphs Fresh Fare,"645 W 9th St, Los Angeles, CA 90015, USA",bakery,2,4.1,,4.1,34.045818,-118.260585,9th / Hope,76.0,66,https://www.google.com/maps/place/?q=place_id:ChIJFdArV7bHwoARwq5whSpuG0Q
ChIJOdM_dhnHwoARVjCcEiZuLYg,google,Vons,"1342 N Alvarado St, Los Angeles, CA 90026, USA",bakery,,4.1,,4.1,34.0795176,-118.2612607,Sunset / Park,162.3,4,https://www.google.com/maps/place/?q=place_id:ChIJOdM_dhnHwoARVjCcEiZuLYg
ChIJA66rhDjHwoARCUiF5f-Z4yA,google,Lark Cake Shop,"3337 Sunset Blvd, Los Angeles, CA 90026, USA",bakery,2,4.1,,4.1,34.0875294,-118.2755347,Sunset / Micheltorena,39.1,2,https://www.google.com/maps/place/?q=place_id:ChIJA66rhDjHwoARCUiF5f-Z4yA
ChIJaz46A4W4woARM1iwC0URPD0,google,Ralphs,"670 S Western Ave, Los Angeles, CA 90005, USA",bakery,2,4.1,,4.1,34.0600458,-118.3085512,Western / Wilshire,142.9,66,https://www.google.com/maps/place/?q=place_id:ChIJaz46A4W4woARM1iwC0URPD0
ChIJtYVe7ri-woARshBpQ9HaY-U,google,Mamolo's Fine Pastries,"8330 Santa Monica Blvd, West Hollywood, CA 90069, USA",bakery,,4.1,,4.1,34.0903047,-118.37116,Santa Monica / Sweetzer,73.2,4,https://www.google.com/maps/place/?q=place_id:ChIJtYVe7ri-woARshBpQ9HaY-U
ChIJSeu0UMK-woARmiGI_E7pDA0,google,Bristol Farms,"7880 Sunset Blvd, Los Angeles, CA 90046, USA",bakery,,4.1,,4.1,34.0976599,-118.3612886,Fairfax / Sunset,30.0,217,https://www.google.com/maps/place/?q=place_id:ChIJSeu0UMK-woARmiGI_E7pDA0
ChIJ-eNZfMqkwoARjfzHjQ9ofjM,google,Vons,"1311 Wilshire Blvd, Santa Monica, CA 90403, USA",bakery,,4.1,,4.1,34.0265061,-118.4899059,Wilshire / 14th,109.2,720,https://www.google.com/maps/place/?q=place_id:ChIJ-eNZfMqkwoARjfzHjQ9ofjM
ChIJ0_drls2kwoARDiN_0cz4cnw,google,Vons,"710 Broadway, Santa Monica, CA 90401, USA",bakery,,4.1,,4.1,34.0173423,-118.4901344,Santa Monica / Lincoln,286.3,4,https://www.google.com/maps/place/?q=place_id:ChIJ0_drls2kwoARDiN_0cz4cnw
ChIJlVm-hzC6woARhvUogUS2tro,google,Ralphs,"3827 Culver Center, Culver City, CA 90232, USA",bakery,2,4.1,,4.1,34.017309,-118.4077102,Venice / Overland,173.7,33,https://www.google.com/maps/place/?q=place_id:ChIJlVm-hzC6woARhvUogUS2tro
ChIJob8Q_NK7woARWjmm9WZBRvQ,google,Vons,"9860 National Blvd, Cheviot Hills, CA 90034, USA",bakery,,4.1,,4.1,34.0302194,-118.4014345,Venice / Bagley,770.5,33,https://www.google.com/maps/place/?q=place_id:ChIJob8Q_NK7woARWjmm9WZBRvQ
ChIJnc7dGpO7woAR5rLm00gI4Dw,google,Ralphs Fresh Fare,"10309 W Olympic Blvd, Los Angeles, CA 90064, USA",bakery,2,4.1,,4.1,34.0524416,-118.4177738,Century Park West / Solar,346.0,28,https://www.google.com/maps/place/?q=place_id:ChIJnc7dGpO7woAR5rLm00gI4Dw
ChIJU0frxau-woAR5USsDfCdmDw,google,Ralphs Fresh Fare,"9040 Beverly Blvd, West Hollywood, CA 90048, USA",bakery,2,4.1,,4.1,34.0766526,-118.3890975,Santa Monica / Doheny,479.3,4,https://www.google.com/maps/place/?q=place_id:ChIJU0frxau-woAR5USsDfCdmDw
a3aAxCf6PaYCZr48LYbQ2g,yelp,Tartine,"1925 Arizona Ave, Santa Monica, CA",bakery,2,,4.1,4.1,34.03009,-118.4822,Wilshire / 20th,153.3,20,https://www.yelp.com/biz/tartine-santa-monica-8?adjust_creative=85PVB_CXUayFuBfpSaKuwQ&utm_campaign=yelp_api_v3&utm_medium=api_v3_business_search&utm_source=85PVB_CXUayFuBfpSaKuwQ
g7bvMWpWSNxSoq8WxfEcZQ,yelp,Bottega Louie,"8936 Santa Monica Blvd, Los Angeles, CA",bakery,3,,4.1,4.1,34.083913,-118.384953,San Vicente / Santa Monica,112.0,16,https://www.yelp.com/biz/bottega-louie-los-angeles-8?adjust_creative=85PVB_CXUayFuBfpSaKuwQ&utm_campaign=yelp_api_v3&utm_medium=api_v3_business_search&utm_source=85PVB_CXUayFuBfpSaKuwQ
8U25CW8za6U7ycNTlpJ2uQ,yelp,Lodge Bread,"11918 Washington Blvd, Los Angeles, CA",bakery,2,,4.1,4.1,33.9978245979172,-118.42031159448,Venice / Inglewood,1205.9,33,https://www.yelp.com/biz/lodge-bread-los-angeles?adjust_creative=85PVB_CXUayFuBfpSaKuwQ&utm_campaign=yelp_api_v3&utm_medium=api_v3_business_search&utm_source=85PVB_CXUayFuBfpSaKuwQ
fMuuhCBLbcTvu-qZ6ObmfQ,yelp,Gigi's Bakery & Café,"2200 W Temple St, Los Angeles, CA",bakery,2,,4.1,4.1,34.07059183049042,-118.26948718886624,Alvarado / Temple,131.2,2,https://www.yelp.com/biz/gigis-bakery-and-caf%C3%A9-los-angeles-2?adjust_creative=85PVB_CXUayFuBfpSaKuwQ&utm_campaign=yelp_api_v3&utm_medium=api_v3_business_search&utm_source=85PVB_CXUayFuBfpSaKuwQ
wyZWl-NqeTa38KloWu5jQw,yelp,Friends & Family,"5150 Hollywood Blvd, Los Angeles, CA",bakery,2,,4.1,4.1,34.10151,-118.30238,Hollywood / Normandie,151.5,217,https://www.yelp.com/biz/friends-and-family-los-angeles?adjust_creative=85PVB_CXUayFuBfpSaKuwQ&utm_campaign=yelp_api_v3&utm_medium=api_v3_business_search&utm_source=85PVB_CXUayFuBfpSaKuwQ
JAkSNsUis8ZSSAAKpVQVXw,yelp,Doré Bakery,"7710 Brentwood Blvd, Brentwood, CA",bakery,1,,4.1,4.1,37.944403,-121.695553,Foothill / Roxford,496568.8,224,https://www.yelp.com/biz/dor%C3%A9-bakery-brentwood-2?adjust_creative=85PVB_CXUayFuBfpSaKuwQ&utm_campaign=yelp_api_v3&utm_medium=api_v3_business_search&utm_source=85PVB_CXUayFuBfpSaKuwQ
FLETQt9SqaFYudE8_PTBQw,yelp,The Donut Man,"317 S Bdwy, Los Angeles, CA",bakery,2,,4.1,4.1,34.050532,-118.2487,Broadway / 3rd,110.6,45,https://www.yelp.com/biz/the-donut-man-los-angeles?adjust_creative=85PVB_CXUayFuBfpSaKuwQ&utm_campaign=yelp_api_v3&utm_medium=api_v3_business_search&utm_source=85PVB_CXUayFuBfpSaKuwQ
YRuX7qMjJZfS2fxBJx2BRQ,yelp,La Monarca Bakery & Cafe,"6091 Sunset Blvd, Los Angeles, CA",bakery,2,,4.1,4.1,34.0983428955078,-118.322006225586,Sunset / Gower,23.6,2,https://www.yelp.com/biz/la-monarca-bakery-and-cafe-los-angeles?adjust_creative=85PVB_CXUayFuBfpSaKuwQ&utm_campaign=yelp_api_v3&utm_medium=api_v3_business_search&utm_source=85PVB_CXUayFuBfpSaKuwQ
Fh0gspnMLQHtV3bzaJUtXA,yelp,Levain Bakery,"227 North Larchmont Blvd, Los Angeles, CA",bakery,2,,4.1,4.1,34.075487,-118.323946,Beverly / Larchmont,85.7,14,https://www.yelp.com/biz/levain-bakery-los-angeles-4?adjust_creative=85PVB_CXUayFuBfpSaKuwQ&utm_campaign=yelp_api_v3&utm_medium=api_v3_business_search&utm_source=85PVB_CXUayFuBfpSaKuwQ
cWEzdY1fDxtSTLQRP8WPow,yelp,La Monarca Bakery & Cafe,"1300 Wilshire Blvd, Santa Monica, CA",bakery,2,,4.1,4.1,34.0259991,-118.4896074,Wilshire / 14th,124.1,20,https://www.yelp.com/biz/la-monarca-bakery-and-cafe-santa-monica-3?adjust_creative=85PVB_CXUayFuBfpSaKuwQ&utm_campaign=yelp_api_v3&utm_medium=api_v3_business_search&utm_source=85PVB_CXUayFuBfpSaKuwQ
Cw7SSUzCaZ_e5d3_Xfoj5A,yelp,Clark Street Bakery,"11702 Barrington Ct, Los Angeles, CA",bakery,2,,4.1,4.1,34.06436,-118.469414,Wilshire / Bonsall,1681.1,720,https://www.yelp.com/biz/clark-street-los-angeles-3?adjust_creative=85PVB_CXUayFuBfpSaKuwQ&utm_campaign=yelp_api_v3&utm_medium=api_v3_business_search&utm_source=85PVB_CXUayFuBfpSaKuwQ
YD8IObJJxZGjFmzB8-_txw,yelp,Fat + Flour,"11739 Washington Blvd, Los Angeles, CA",bakery,2,,4.1,4.1,33.999385,-118.418878,Venice / McLaughlin,1136.2,33,https://www.yelp.com/biz/fat-flour-los-angeles-2?adjust_creative=85PVB_CXUayFuBfpSaKuwQ&utm_campaign=yelp_api_v3&utm_medium=api_v3_business_search&utm_source=85PVB_CXUayFuBfpSaKuwQ
AFxQXHhsEUO55gpy69k_-A,yelp,Marchini Time,"Campo San Luca 4589, Venezia, VE",bakery,1,,4.1,4.1,45.435844598104,12.3351790369338,Sayre / Eldridge,9859153.0,234,https://www.yelp.com/biz/marchini-time-venezia-2?adjust_creative=85PVB_CXUayFuBfpSaKuwQ&utm_campaign=yelp_api_v3&utm_medium=api_v3_business_search&utm_source=85PVB_CXUayFuBfpSaKuwQ
b9zsVWafeS2CXrv6JX5T6Q,yelp,Big Jim's Donuts,"702 N Vermont Ave, Los Angeles, CA",bakery,1,,4.1,4.1,34.0837452560663,-118.291657716036,Vermont / Melrose,19.5,204,https://www.yelp.com/biz/big-jims-donuts-los-angeles-3?adjust_creative=85PVB_CXUayFuBfpSaKuwQ&utm_campaign=yelp_api_v3&utm_medium=api_v3_business_search&utm_source=85PVB_CXUayFuBfpSaKuwQ
M2WU0UwuiraV07N_piDJag,yelp,Mustard's Bagels,"10850 Washington Blvd, Culver City, CA",bakery,2,,4.1,4.1,34.01402515135243,-118.408244,Venice / Girard,343.3,33,https://www.yelp.com/biz/mustards-bagels-culver-city?adjust_creative=85PVB_CXUayFuBfpSaKuwQ&utm_campaign=yelp_api_v3&utm_medium=api_v3_business_search&utm_source=85PVB_CXUayFuBfpSaKuwQ
6n4piw0YlY6t7swlHDdzdg,yelp,Grand Casino Bakery & Café,"3826 Main St, Culver City, CA",bakery,2,,4.1,4.1,34.02507,-118.39439,Venice / Bagley,51.3,33,https://www.yelp.com/biz/grand-casino-bakery-and-caf%C3%A9-culver-city?adjust_creative=85PVB_CXUayFuBfpSaKuwQ&utm_campaign=yelp_api_v3&utm_medium=api_v3_business_search&utm_source=85PVB_CXUayFuBfpSaKuwQ
a5HnEOhMJgr8KpnvAkz7kg,yelp,Röckenwagner Bakery,"12835 W Washington Blvd, Los Angeles, CA",bakery,2,,4.1,4.1,33.9957389831543,-118.437850952148,Venice / Beethoven,529.8,33,https://www.yelp.com/biz/r%C3%B6ckenwagner-bakery-los-angeles-2?adjust_creative=85PVB_CXUayFuBfpSaKuwQ&utm_campaign=yelp_api_v3&utm_medium=api_v3_business_search&utm_source=85PVB_CXUayFuBfpSaKuwQ
Du99_4cl8iA4GEJC7YtJqg,yelp,Cafe Knotted Westfield Century City,"10250 Santa Monica Blvd, Los Angeles, CA",bakery,2,,4.1,4.1,34.05797342480493,-118.41798281921756,Century Park West / Solar,270.2,28,https://www.yelp.com/biz/cafe-knotted-westfield-century-city-los-angeles?adjust_creative=85PVB_CXUayFuBfpSaKuwQ&utm_campaign=yelp_api_v3&utm_medium=api_v3_business_search&utm_source=85PVB_CXUayFuBfpSaKuwQ
weFFEIRdksAOzNA_f0s3ww,yelp,Venice Bakery & Restaurant,"10943 Venice Blvd, Los Angeles, CA",bakery,2,,4.1,4.1,34.01556,-118.41328,Venice / Midvale,221.9,33,https://www.yelp.com/biz/venice-bakery-and-restaurant-los-angeles?adjust_creative=85PVB_CXUayFuBfpSaKuwQ&utm_campaign=yelp_api_v3&utm_medium=api_v3_business_search&utm_source=85PVB_CXUayFuBfpSaKuwQ
HFmXK1o2R1l-A-14yBIbDg,yelp,Sidecar Doughnuts & Coffee,"812 S Arroyo Pkwy, Pasadena, CA",bakery,2,,4.1,4.1,34.131726240385426,-118.14682219670227,Main / Fremont,4065.6,78,https://www.yelp.com/biz/sidecar-doughnuts-and-coffee-pasadena?adjust_creative=85PVB_CXUayFuBfpSaKuwQ&utm_campaign=yelp_api_v3&utm_medium=api_v3_business_search&utm_source=85PVB_CXUayFuBfpSaKuwQ
InYPm2BDPmxk1erWC4ZKtQ,yelp,Seed Bakery,"942 E Washington Blvd, Pasadena, CA",bakery,2,,4.1,4.1,34.1688451,-118.1313692,Woodward / Garfield,7919.4,78,https://www.yelp.com/biz/seed-bakery-pasadena?adjust_creative=85PVB_CXUayFuBfpSaKuwQ&utm_campaign=yelp_api_v3&utm_medium=api_v3_business_search&utm_source=85PVB_CXUayFuBfpSaKuwQ
9WwO1zq3t1lgs_VsSRvc3g,yelp,Cafe De Olla Bakery,"1167 E Huntington Dr, Duarte, CA",bakery,2,,4.1,4.1,34.14016020530362,-117.98048572258196,Valley / Santa Anita,9032.3,76,https://www.yelp.com/biz/cafe-de-olla-bakery-duarte-2?adjust_creative=85PVB_CXUayFuBfpSaKuwQ&utm_campaign=yelp_api_v3&utm_medium=api_v3_business_search&utm_source=85PVB_CXUayFuBfpSaKuwQ
bcfzVkIgnf2uXtg5l3gJsw,yelp,Sidecar Doughnuts & Coffee,"3026 N Sepulveda Blvd, Manhattan Beach, CA",bakery,3,,4.1,4.1,33.897555043258215,-118.39530801534416,Sepulveda / 30th,51.4,232,https://www.yelp.com/biz/sidecar-doughnuts-and-coffee-manhattan-beach-2?adjust_creative=85PVB_CXUayFuBfpSaKuwQ&utm_campaign=yelp_api_v3&utm_medium=api_v3_business_search&utm_source=85PVB_CXUayFuBfpSaKuwQ
bpbHRtpPKafKgHUw23UVbg,yelp,SusieCakes,"3500 N Sepulveda Blvd, Manhattan Beach, CA",bakery,2,,4.1,4.1,33.90001,-118.39561,Sepulveda / Rosecrans,145.9,232,https://www.yelp.com/biz/susiecakes-manhattan-beach-2?adjust_creative=85PVB_CXUayFuBfpSaKuwQ&utm_campaign=yelp_api_v3&utm_medium=api_v3_business_search&utm_source=85PVB_CXUayFuBfpSaKuwQ
ahV0fQH8GppVwlQ6pq_hQA,yelp,The Witch's Cottage,"5303 Lankershim Blvd, Los Angeles, CA",bakery,2,,4.1,4.1,34.16717,-118.37623,Chandler / Lankershim,139.2,237,https://www.yelp.com/biz/the-witchs-cottage-los-angeles-2?adjust_creative=85PVB_CXUayFuBfpSaKuwQ&utm_campaign=yelp_api_v3&utm_medium=api_v3_business_search&utm_source=85PVB_CXUayFuBfpSaKuwQ
rbc9eyODP68T_DFzIYuNNQ,yelp,Le Pain Quotidien,"1122 S Gayley Ave, Los Angeles, CA",bakery,2,,4.1,4.1,34.05965399880459,-118.44570842329786,Wilshire / Westwood,224.1,720,https://www.yelp.com/biz/le-pain-quotidien-los-angeles-24?adjust_creative=85PVB_CXUayFuBfpSaKuwQ&utm_campaign=yelp_api_v3&utm_medium=api_v3_business_search&utm_source=85PVB_CXUayFuBfpSaKuwQ
YzITnm5QR3mu-KPNW-uOaw,yelp,Paris Baguette,"3060 W Olympic Blvd, Los Angeles, CA",bakery,2,,4.1,4.1,34.05245652843049,-118.303026,Olympic / Harvard,95.0,28,https://www.yelp.com/biz/paris-baguette-los-angeles-8?adjust_creative=85PVB_CXUayFuBfpSaKuwQ&utm_campaign=yelp_api_v3&utm_medium=api_v3_business_search&utm_source=85PVB_CXUayFuBfpSaKuwQ
ChIJG09LcCi_woARoaEpRpt5JsY,google,Ralphs,"1233 N La Brea Ave, West Hollywood, CA 90038, USA",bakery,2,4,,4.0,34.0934927,-118.3446193,La Brea / Fountain,96.7,212,https://www.google.com/maps/place/?q=place_id:ChIJG09LcCi_woARoaEpRpt5JsY
xVSv26KBQexP4M0l63SGlg,yelp,Alcove Café & Bakery,"1929 Hillhurst Ave, Los Angeles, CA",bakery,2,,4.0,4.0,34.106215,-118.28776,Hollywood / New Hampshire Layover,656.7,217,https://www.yelp.com/biz/alcove-cafe-and-bakery-los-angeles?adjust_creative=85PVB_CXUayFuBfpSaKuwQ&utm_campaign=yelp_api_v3&utm_medium=api_v3_business_search&utm_source=85PVB_CXUayFuBfpSaKuwQ
a3dpfImJEUKBcIZBadW2RA,yelp,Noah's NY Bagels,"330 Manhattan Beach Blvd, Manhattan Beach, CA",bakery,1,,4.0,4.0,33.88522,-118.4089066,Sepulveda / 8th,1187.7,232,https://www.yelp.com/biz/noahs-bagels-manhattan-beach?adjust_creative=85PVB_CXUayFuBfpSaKuwQ&utm_campaign=yelp_api_v3&utm_medium=api_v3_business_search&utm_source=85PVB_CXUayFuBfpSaKuwQ
XpXcEP7JRIQZpDDnsXy2gA,yelp,Tartine Sycamore,"911 N Sycamore, Los Angeles, CA",bakery,2,,4.0,4.0,34.087526983486775,-118.3431316,La Brea / Willoughby,101.4,212,https://www.yelp.com/biz/tartine-sycamore-los-angeles?adjust_creative=85PVB_CXUayFuBfpSaKuwQ&utm_campaign=yelp_api_v3&utm_medium=api_v3_business_search&utm_source=85PVB_CXUayFuBfpSaKuwQ
KItHaOBsBJo0wRToy3E0Aw,yelp,Republic Of Pie,"11118 Magnolia Blvd, North Hollywood, CA",bakery,2,,4.0,4.0,34.164705,-118.37308871870852,Lankershim / Magnolia,141.6,224,https://www.yelp.com/biz/republic-of-pie-north-hollywood?adjust_creative=85PVB_CXUayFuBfpSaKuwQ&utm_campaign=yelp_api_v3&utm_medium=api_v3_business_search&utm_source=85PVB_CXUayFuBfpSaKuwQ
J_brGEHHikhvEUiVVwVCsg,yelp,Tartine,"5335 W Adams Blvd, Los Angeles, CA",bakery,2,,4.0,4.0,34.03267445356502,-118.35856351365328,La Brea / Ferndale,642.5,212,https://www.yelp.com/biz/tartine-los-angeles-2?adjust_creative=85PVB_CXUayFuBfpSaKuwQ&utm_campaign=yelp_api_v3&utm_medium=api_v3_business_search&utm_source=85PVB_CXUayFuBfpSaKuwQ
B0j2eSIQ3dHuG1BJOC9s5Q,yelp,Dks Donuts & Bakery,"1614 Santa Monica Blvd, Santa Monica, CA",bakery,2,,4.0,4.0,34.025813,-118.483331,Santa Monica / 14th,275.2,4,https://www.yelp.com/biz/dks-donuts-and-bakery-santa-monica?adjust_creative=85PVB_CXUayFuBfpSaKuwQ&utm_campaign=yelp_api_v3&utm_medium=api_v3_business_search&utm_source=85PVB_CXUayFuBfpSaKuwQ
f0RBVXj25aqqtv5t0KyR4Q,yelp,Gone Bananas,"225 26th St, Santa Monica, CA",bakery,,,4.0,4.0,34.047462063103055,-118.49071474514967,Wilshire / 26th,1750.1,720,https://www.yelp.com/biz/gone-bananas-santa-monica?adjust_creative=85PVB_CXUayFuBfpSaKuwQ&utm_campaign=yelp_api_v3&utm_medium=api_v3_business_search&utm_source=85PVB_CXUayFuBfpSaKuwQ
rd8Ri3COPDQPNwdcFWvJrg,yelp,Tommini,"Via Cà Balbi 313, Vicenza, VI",bakery,2,,4.0,4.0,45.5431248230709,11.6027996350705,Sayre / Eldridge,9813957.6,234,https://www.yelp.com/biz/tommini-vicenza?adjust_creative=85PVB_CXUayFuBfpSaKuwQ&utm_campaign=yelp_api_v3&utm_medium=api_v3_business_search&utm_source=85PVB_CXUayFuBfpSaKuwQ
AUbKbVQAUNI6Vr6LYtOZzA,yelp,California Donuts,"3540 W 3rd St, Los Angeles, CA",bakery,2,,4.0,4.0,34.068796,-118.293089,Vermont / 3rd,128.4,204,https://www.yelp.com/biz/california-donuts-los-angeles-2?adjust_creative=85PVB_CXUayFuBfpSaKuwQ&utm_campaign=yelp_api_v3&utm_medium=api_v3_business_search&utm_source=85PVB_CXUayFuBfpSaKuwQ
KwgwcP8GTyOwphwifasV-w,yelp,Paris Baguette,"125 North Western Ave, Los Angeles, CA",bakery,1,,4.0,4.0,34.0738166208763,-118.309304807785,Western / 1st,40.8,210,https://www.yelp.com/biz/paris-baguette-los-angeles?adjust_creative=85PVB_CXUayFuBfpSaKuwQ&utm_campaign=yelp_api_v3&utm_medium=api_v3_business_search&utm_source=85PVB_CXUayFuBfpSaKuwQ
Q1M5NCS2eLnOfhOVhicywA,yelp,Coin De Rue Bakery & Cafe,"1110 S Western Ave, Los Angeles, CA",bakery,1,,4.0,4.0,34.050422,-118.3086145,Olympic / Western,233.7,28,https://www.yelp.com/biz/coin-de-rue-bakery-and-cafe-los-angeles?adjust_creative=85PVB_CXUayFuBfpSaKuwQ&utm_campaign=yelp_api_v3&utm_medium=api_v3_business_search&utm_source=85PVB_CXUayFuBfpSaKuwQ
Kq_55b6ri0qZqunKS0aDWw,yelp,Echo Park Donut,"1411 Echo Park Ave, Los Angeles, CA",bakery,1,,4.0,4.0,34.0781708,-118.2567596,Sunset / Echo Park,150.7,4,https://www.yelp.com/biz/echo-park-donut-los-angeles?adjust_creative=85PVB_CXUayFuBfpSaKuwQ&utm_campaign=yelp_api_v3&utm_medium=api_v3_business_search&utm_source=85PVB_CXUayFuBfpSaKuwQ
jjKXyjjw-Vcz1FOzzAK3YA,yelp,The Village Bakery and Cafe,"3119 Los Feliz Blvd, Los Angeles, CA",bakery,2,,4.0,4.0,34.1242766,-118.2672948,Hollywood / New Hampshire Layover,3410.4,217,https://www.yelp.com/biz/the-village-bakery-and-cafe-los-angeles?adjust_creative=85PVB_CXUayFuBfpSaKuwQ&utm_campaign=yelp_api_v3&utm_medium=api_v3_business_search&utm_source=85PVB_CXUayFuBfpSaKuwQ
gv6lbay7_N-oZm6WPGpvvg,yelp,Sidecar Doughnuts & Coffee,"175 S Fairfax Ave, Los Angeles, CA",bakery,2,,4.0,4.0,34.072107,-118.361857,Fairfax / 3rd,46.5,218,https://www.yelp.com/biz/sidecar-doughnuts-and-coffee-los-angeles-2?adjust_creative=85PVB_CXUayFuBfpSaKuwQ&utm_campaign=yelp_api_v3&utm_medium=api_v3_business_search&utm_source=85PVB_CXUayFuBfpSaKuwQ
yNqsE1-Pba0d2Ie2sdMMRw,yelp,Pop's Bagels,"9300 Culver Blvd, Culver City, CA",bakery,2,,4.0,4.0,34.0243454151362,-118.3938008893696,Venice / Bagley,148.0,33,https://www.yelp.com/biz/pops-bagels-culver-city-6?adjust_creative=85PVB_CXUayFuBfpSaKuwQ&utm_campaign=yelp_api_v3&utm_medium=api_v3_business_search&utm_source=85PVB_CXUayFuBfpSaKuwQ
iGQLsb_KoQ225h2jAoQDXg,yelp,Pan Dulce Bakery,"12131 Washington Pl, Los Angeles, CA",bakery,1,,4.0,4.0,34.0009405421912,-118.427885770798,Venice / Grand View,521.4,33,https://www.yelp.com/biz/pan-dulce-bakery-los-angeles?adjust_creative=85PVB_CXUayFuBfpSaKuwQ&utm_campaign=yelp_api_v3&utm_medium=api_v3_business_search&utm_source=85PVB_CXUayFuBfpSaKuwQ
uglKg8Ofe0wBk6XgJGOVvQ,yelp,Randy's Donuts,"4114 Sepulveda Blvd, Culver City, CA",bakery,,,4.0,4.0,34.00738368469285,-118.4126938188385,Venice / Sepulveda,720.5,33,https://www.yelp.com/biz/randys-donuts-culver-city?adjust_creative=85PVB_CXUayFuBfpSaKuwQ&utm_campaign=yelp_api_v3&utm_medium=api_v3_business_search&utm_source=85PVB_CXUayFuBfpSaKuwQ
TspdqzOMb5RdB06XXZfyXQ,yelp,Van Bakery,"5409 W Sunset Blvd, Los Angeles, CA",bakery,1,,4.0,4.0,34.09844,-118.30757,Sunset / Western,133.0,2,https://www.yelp.com/biz/van-bakery-los-angeles?adjust_creative=85PVB_CXUayFuBfpSaKuwQ&utm_campaign=yelp_api_v3&utm_medium=api_v3_business_search&utm_source=85PVB_CXUayFuBfpSaKuwQ
uYKC0m3IddA8GCbjWJCI7g,yelp,B Sweet Dessert Bar,"2005 Sawtelle Blvd, Los Angeles, CA",bakery,2,,4.0,4.0,34.0406502357722,-118.443594703041,Nebraska / Sepulveda,565.3,4,https://www.yelp.com/biz/b-sweet-dessert-bar-los-angeles-7?adjust_creative=85PVB_CXUayFuBfpSaKuwQ&utm_campaign=yelp_api_v3&utm_medium=api_v3_business_search&utm_source=85PVB_CXUayFuBfpSaKuwQ
kbmQq6oqBxtLz5l3SiWxoQ,yelp,Sunshine Donuts,"8300 Brentwood Blvd, Brentwood, CA",bakery,1,,4.0,4.0,37.93398,-121.69742,Foothill / Roxford,495739.2,224,https://www.yelp.com/biz/sunshine-donuts-brentwood-4?adjust_creative=85PVB_CXUayFuBfpSaKuwQ&utm_campaign=yelp_api_v3&utm_medium=api_v3_business_search&utm_source=85PVB_CXUayFuBfpSaKuwQ
t4whmtt7R1R8NkN2w7Wkrg,yelp,Mochinut - Brentwood,"2455 Sand Creek Rd, Brentwood, CA",bakery,2,,4.0,4.0,37.945365160733225,-121.73976042944778,Foothill / Roxford,498985.2,224,https://www.yelp.com/biz/mochinut-brentwood-brentwood?adjust_creative=85PVB_CXUayFuBfpSaKuwQ&utm_campaign=yelp_api_v3&utm_medium=api_v3_business_search&utm_source=85PVB_CXUayFuBfpSaKuwQ
ax00SC8MlflXPmfIALDc7w,yelp,La Cascada Panaderia y Botanas,"1127 E 18th St, Antioch, CA",bakery,1,,4.0,4.0,38.0043246200629,-121.786442622542,Foothill / Roxford,506682.1,224,https://www.yelp.com/biz/la-cascada-panaderia-y-botanas-antioch?adjust_creative=85PVB_CXUayFuBfpSaKuwQ&utm_campaign=yelp_api_v3&utm_medium=api_v3_business_search&utm_source=85PVB_CXUayFuBfpSaKuwQ
